[{"date_id":22843,"image":"uploads\/img\/thumb\/dd5508ea7142d52f549095856d577e7c.jpg","month":"11-2017","title":"TangoEnergia","city":"Castelfranco Veneto","country":"Italy","start_fr":"18\/11\/2017","end_fr":"12\/05\/2018","start_en":"2017-11-18","end_en":"2018-05-12","lat":"45.6716942","lng":"11.9282388","type":"tango-week-end"},{"date_id":20301,"image":"uploads\/img\/thumb\/3554cc654f010e5628df03d4a4456d16.jpg","month":"01-2018","title":"Snow Tango : Janvier & Mars 2018","city":"Albertville FR","country":"France","start_fr":"14\/01\/2018","end_fr":"31\/03\/2018","start_en":"2018-01-14","end_en":"2018-03-31","lat":"45.675535","lng":"6.392726","type":"voyage-tango"},{"date_id":49136,"image":"uploads\/img\/thumb\/56a085097f3859e9579bae85604a0a0e.jpg","month":"02-2018","title":"\u0410\u0440\u0433\u0435\u043d\u0442\u0438\u043d\u0441\u044c\u043a\u0435 \u0442\u0430\u043d\u0433\u043e, \u043d\u043e\u0432\u0430 \u0433\u0440\u0443\u043f\u0430, \u043d\u0430\u0431\u0456\u0440 \u043f\u043e\u0447\u0430\u0442\u043a\u0456\u0432\u0446\u0456\u0432.","city":"Dnipropetrovsk","country":"Ukraine","start_fr":"11\/02\/2018","end_fr":"25\/02\/2018","start_en":"2018-02-11","end_en":"2018-02-25","lat":"48.464717","lng":"35.046183","type":"tango-festival"},{"date_id":27833,"image":"uploads\/img\/thumb\/7195aef8e3ba0a76cccf26224fdc1765.jpg","month":"02-2018","title":"TangoSci 17-24.2 Peio-Cogolo(TN) Val sole Hotel Kristiania ****S","city":"Bolzano","country":"Italy","start_fr":"17\/02\/2018","end_fr":"24\/02\/2018","start_en":"2018-02-17","end_en":"2018-02-24","lat":"46.4982953","lng":"11.3547582","type":"voyage-tango"},{"date_id":26909,"image":"uploads\/img\/thumb\/f52b077a48be6a363ad105ad910be592.jpg","month":"02-2018","title":"Le Voyage de Reference- 14\u00b0 Voyage \u00e0 Buenos Aires","city":"Buenos Aires","country":"Argentina","start_fr":"18\/02\/2018","end_fr":"03\/03\/2018","start_en":"2018-02-18","end_en":"2018-03-03","lat":"-34.6036844","lng":"-58.3815591","type":"voyage-tango"},{"date_id":7152,"image":"uploads\/img\/thumb\/a3f2b4b1279b140e202f78056341e0b5.jpg","month":"02-2018","title":"Vacanza di tango a Buenos Aires + folklore argentino","city":"Buenos Aires","country":"Argentina","start_fr":"19\/02\/2018","end_fr":"02\/03\/2018","start_en":"2018-02-19","end_en":"2018-03-02","lat":"-34.6036844","lng":"-58.3815591","type":"voyage-tango"},{"date_id":29229,"image":"uploads\/img\/thumb\/90b4be85e6c5531c4c4c2fb08460c999.jpg","month":"02-2018","title":"Tango Esencia Festival 2018","city":"Buenos Aires","country":"Argentina","start_fr":"19\/02\/2018","end_fr":"26\/02\/2018","start_en":"2018-02-19","end_en":"2018-02-26","lat":"-34.6036844","lng":"-58.3815591","type":"tango-festival"},{"date_id":51141,"image":"uploads\/img\/thumb\/9ede54b3665b5f5dcc4ced6479b4e77e.jpg","month":"02-2018","title":"Tango Esencia Festival 2018","city":"Buenos Aires","country":"Argentina","start_fr":"19\/02\/2018","end_fr":"26\/02\/2018","start_en":"2018-02-19","end_en":"2018-02-26","lat":"-34.6036844","lng":"-58.3815591","type":"tango-festival"},{"date_id":42164,"image":"uploads\/img\/thumb\/fed55d1b242738ce8d66713b95c54674.jpg","month":"02-2018","title":"A&A COSTA in London - 20th Feb to 4th March 2018 -","city":"London","country":"United Kingdom","start_fr":"20\/02\/2018","end_fr":"04\/03\/2018","start_en":"2018-02-20","end_en":"2018-03-04","lat":"51.5073509","lng":"-0.1277583","type":"tango-festival"},{"date_id":8035,"image":"uploads\/img\/thumb\/2d098a671b748c817e75d2e71d76fd2a.jpg","month":"02-2018","title":"9\u00ba Workshop Milonga Sevilla - 21 to 25 February 2018","city":"Sevilla","country":"Spain","start_fr":"21\/02\/2018","end_fr":"25\/02\/2018","start_en":"2018-02-21","end_en":"2018-02-25","lat":"37.3890924","lng":"-5.9844589","type":"tango-festival"},{"date_id":28163,"image":"uploads\/img\/thumb\/8e029645d584a3cfabcfc2764890ef51.jpg","month":"02-2018","title":"\u0422\u0430\u043d\u0433\u043e \u041c\u0430\u0440\u0430\u0444\u043e\u043d \u0432 \u0421\u043e\u0447\u0438 - Sochi Tango Marathon 2018","city":"Sochi","country":"Russia","start_fr":"22\/02\/2018","end_fr":"26\/02\/2018","start_en":"2018-02-22","end_en":"2018-02-26","lat":"43.60280789999999","lng":"39.7341543","type":"tango-marathon"},{"date_id":8086,"image":"uploads\/img\/thumb\/a5283c87183c13dcff489bd60990ed77.jpg","month":"02-2018","title":"N\u00fcrnberg Tango Festival 2018, Burn the Floor - 3. Edition","city":"Nuremberg","country":"Germany","start_fr":"22\/02\/2018","end_fr":"25\/02\/2018","start_en":"2018-02-22","end_en":"2018-02-25","lat":"49.4521018","lng":"11.0766654","type":"tango-festival"},{"date_id":20475,"image":"uploads\/img\/thumb\/cd43114ded82a1f974ab654188921424.jpg","month":"02-2018","title":"2018 Southern California Tango Championship + Festival","city":"Los Angeles","country":"United States","start_fr":"23\/02\/2018","end_fr":"26\/02\/2018","start_en":"2018-02-23","end_en":"2018-02-26","lat":"34.0522342","lng":"-118.2436849","type":"tango-festival"},{"date_id":27272,"image":"uploads\/img\/thumb\/fde73186eaf4713b77befce4a44393aa.jpg","month":"02-2018","title":"Tango & Wellness Weekend Velence, Febr. 23-25.","city":"Budapest","country":"Hungary","start_fr":"23\/02\/2018","end_fr":"25\/02\/2018","start_en":"2018-02-23","end_en":"2018-02-25","lat":"47.497912","lng":"19.040235","type":"tango-week-end"},{"date_id":22365,"image":"uploads\/img\/thumb\/bc1ce1fefec467995a2589c7adcebcb3.jpg","month":"02-2018","title":"4\u00b0 Incontro Internazionale Di Tango Al Femminile\u00ae","city":"Milan","country":"Italy","start_fr":"23\/02\/2018","end_fr":"25\/02\/2018","start_en":"2018-02-23","end_en":"2018-02-25","lat":"45.4642035","lng":"9.189982","type":"tango-week-end"},{"date_id":16701,"image":"uploads\/img\/thumb\/76c21ad132e14cec8925b022e1901d42.jpg","month":"02-2018","title":"\u0422\u0430\u043d\u0433\u043e-\u0443\u0438\u043a\u0435\u043d\u0434 \u0432 \u041a\u043e\u043b\u043e\u043c\u043d\u0435","city":"Moscow","country":"Russia","start_fr":"23\/02\/2018","end_fr":"25\/02\/2018","start_en":"2018-02-23","end_en":"2018-02-25","lat":"55.755826","lng":"37.6172999","type":"tango-week-end"},{"date_id":30434,"image":"uploads\/img\/thumb\/11fa7ca7af1a619fd93276571c1e94c2.jpg","month":"02-2018","title":"9*:MartinezyWitanowsky,ParascandoloyFersi,CegliayMarchetti,BovolentaForzato","city":"Montegrotto Terme","country":"Italy","start_fr":"23\/02\/2018","end_fr":"25\/02\/2018","start_en":"2018-02-23","end_en":"2018-02-25","lat":"45.3371998","lng":"11.783265","type":"tango-festival"},{"date_id":35724,"image":"uploads\/img\/thumb\/f9a4ca22726074c23900c3bdc63deec6.jpg","month":"02-2018","title":"SKI & TANGO Weekend Feb 23-25","city":"Bend","country":"United States","start_fr":"23\/02\/2018","end_fr":"25\/02\/2018","start_en":"2018-02-23","end_en":"2018-02-25","lat":"44.0581728","lng":"-121.3153096","type":"voyage-tango"},{"date_id":19600,"image":"uploads\/img\/thumb\/544274dba24170840d3aa19a5e4cc178.jpg","month":"02-2018","title":"3rd Beirut Tango Abrazo Marathon","city":"Beirut","country":"Lebanon","start_fr":"23\/02\/2018","end_fr":"25\/02\/2018","start_en":"2018-02-23","end_en":"2018-02-25","lat":"33.8937913","lng":"35.5017767","type":"tango-marathon"},{"date_id":10744,"image":"uploads\/img\/thumb\/84d3666a20b68f5415a844c55e446da5.jpg","month":"02-2018","title":"En Tu Caricia 2018 - Encuentro Milonguero","city":"Vicenza","country":"Italy","start_fr":"23\/02\/2018","end_fr":"25\/02\/2018","start_en":"2018-02-23","end_en":"2018-02-25","lat":"45.5454787","lng":"11.5354214","type":"tango-encuentro"},{"date_id":49859,"image":"uploads\/img\/thumb\/58f5b4b9bb98da035bae2560d8425280.jpg","month":"02-2018","title":"Berlin Calling","city":"Berlin","country":"Germany","start_fr":"23\/02\/2018","end_fr":"26\/02\/2018","start_en":"2018-02-23","end_en":"2018-02-26","lat":"52.52000659999999","lng":"13.404954","type":"tango-festival"},{"date_id":23124,"image":"uploads\/img\/thumb\/8b478f50b710fd2a0486b367cc18b2c6.jpg","month":"02-2018","title":"Kyiv Encuentro | February 23-25, 2018","city":"Kiev","country":"Ukraine","start_fr":"23\/02\/2018","end_fr":"25\/02\/2018","start_en":"2018-02-23","end_en":"2018-02-25","lat":"50.4501","lng":"30.5234","type":"tango-encuentro"},{"date_id":23615,"image":"uploads\/img\/thumb\/fdd2c8222c889804a1df82a3a43f11c7.jpg","month":"02-2018","title":"Tango weekend with Ivan Terrazas & Sara Grdan, Feb. 23th & 24th","city":"Ljubljana","country":"Slovenia","start_fr":"23\/02\/2018","end_fr":"24\/02\/2018","start_en":"2018-02-23","end_en":"2018-02-24","lat":"46.0569465","lng":"14.5057515","type":"tango-week-end"},{"date_id":24000,"image":"uploads\/img\/thumb\/7355e7b6dfd2a4bab5136adbc57cf15c.jpg","month":"02-2018","title":"El TanGone #9","city":"Lyon","country":"France","start_fr":"23\/02\/2018","end_fr":"26\/02\/2018","start_en":"2018-02-23","end_en":"2018-02-26","lat":"45.764043","lng":"4.835659","type":"tango-week-end"},{"date_id":44227,"image":"uploads\/img\/thumb\/be855a1b43bca6df3176b3ed4ec2e853.jpg","month":"02-2018","title":"Belgrade Tango Masquerade Weekend 10","city":"Belgrade","country":"Serbia","start_fr":"23\/02\/2018","end_fr":"26\/02\/2018","start_en":"2018-02-23","end_en":"2018-02-26","lat":"44.786568","lng":"20.4489216","type":"tango-week-end"},{"date_id":34279,"image":"uploads\/img\/thumb\/3d8ca95bc0074ac7cadb2510f0ed065a.jpg","month":"02-2018","title":"Meronas Tango Weekend vol. 5!","city":"Heraklion","country":"Greece","start_fr":"24\/02\/2018","end_fr":"25\/02\/2018","start_en":"2018-02-24","end_en":"2018-02-25","lat":"35.3387352","lng":"25.1442126","type":"tango-week-end"},{"date_id":22866,"image":"uploads\/img\/thumb\/ead4a3e03683616ff522a9cb637b4814.jpg","month":"02-2018","title":"Vaggelis & Marianna H\u00e9tv\u00e9ge a BTC-ben","city":"Budapest","country":"Hungary","start_fr":"24\/02\/2018","end_fr":"25\/02\/2018","start_en":"2018-02-24","end_en":"2018-02-25","lat":"47.497912","lng":"19.040235","type":"tango-week-end"},{"date_id":8649,"image":"","month":"02-2018","title":"VACANCES & TANGO \u00e0 BUENOS AIRES","city":"Buenos Aires","country":"Argentina","start_fr":"25\/02\/2018","end_fr":"08\/03\/2018","start_en":"2018-02-25","end_en":"2018-03-08","lat":"-34.6036844","lng":"-58.3815591","type":"voyage-tango"},{"date_id":13881,"image":"uploads\/img\/thumb\/4c9b912655dc71c5e3801226a01a6ca9.jpg","month":"02-2018","title":"Buenos Aires 26\/2-8\/3 2018","city":"Buenos Aires","country":"Argentina","start_fr":"26\/02\/2018","end_fr":"08\/03\/2018","start_en":"2018-02-26","end_en":"2018-03-08","lat":"-34.6036844","lng":"-58.3815591","type":"voyage-tango"},{"date_id":50915,"image":"uploads\/img\/thumb\/aeb2d363a3b45cfe45e6a5d763362179.jpg","month":"02-2018","title":"\u0410\u0440\u0436\u0435\u043d\u0442\u0438\u043d\u0441\u043a\u043e \u0422\u0410\u041d\u0413\u041e \u0437\u0430 \u043d\u0430\u0447\u0438\u043d\u0430\u0435\u0449\u0438","city":"Varna","country":"Bulgaria","start_fr":"27\/02\/2018","end_fr":"27\/02\/2018","start_en":"2018-02-27","end_en":"2018-02-27","lat":"43.2140504","lng":"27.9147333","type":"voyage-tango"},{"date_id":41911,"image":"uploads\/img\/thumb\/8166a5a6e2c081b4243642449cf98a4e.jpeg","month":"03-2018","title":"Festivalito de Tango en Hong Kong 2018","city":"Hong Kong","country":"Hong Kong S.A.R.","start_fr":"01\/03\/2018","end_fr":"05\/03\/2018","start_en":"2018-03-01","end_en":"2018-03-05","lat":"22.396428","lng":"114.109497","type":"tango-festival"},{"date_id":56104,"image":"uploads\/img\/thumb\/b1279d467a18249d8c8255ceb0b14400.jpg","month":"03-2018","title":"Tango Nar Weekend in Bratislava","city":"Bratislava","country":"Slovakia","start_fr":"01\/03\/2018","end_fr":"04\/03\/2018","start_en":"2018-03-01","end_en":"2018-03-04","lat":"48.1485965","lng":"17.1077478","type":"tango-week-end"},{"date_id":18761,"image":"uploads\/img\/thumb\/7cbba55bc29c3e028803b6c852c953b6.jpg","month":"03-2018","title":"Matese Tango Invernale \" Vacanza \"","city":"Isernia","country":"Italy","start_fr":"02\/03\/2018","end_fr":"02\/03\/2018","start_en":"2018-03-02","end_en":"2018-03-02","lat":"41.5960411","lng":"14.2331612","type":"voyage-tango"},{"date_id":50252,"image":"uploads\/img\/thumb\/5a438ef99eaf252d5a7d72e34018e716.jpg","month":"03-2018","title":"Corazon de Oro  Kobe Tango Week","city":"Kobe JP","country":"Japan","start_fr":"02\/03\/2018","end_fr":"06\/03\/2018","start_en":"2018-03-02","end_en":"2018-03-06","lat":"34.690083","lng":"135.1955112","type":"tango-week-end"},{"date_id":53142,"image":"uploads\/img\/thumb\/96c7a75ec8a3498a57dd8f0079b644d8.jpg","month":"03-2018","title":"Oradea Tango Weekend II","city":"Cluj-Napoca","country":"Romania","start_fr":"02\/03\/2018","end_fr":"03\/03\/2018","start_en":"2018-03-02","end_en":"2018-03-03","lat":"46.7712101","lng":"23.6236353","type":"tango-week-end"},{"date_id":52706,"image":"uploads\/img\/thumb\/15e5a2f9c0cacb3615d63b4758c662d6.jpg","month":"03-2018","title":"Purdue Tango Festival 2018","city":"West Lafayette","country":"United States","start_fr":"02\/03\/2018","end_fr":"04\/03\/2018","start_en":"2018-03-02","end_en":"2018-03-04","lat":"40.4258686","lng":"-86.90806549999999","type":"tango-festival"},{"date_id":51834,"image":"uploads\/img\/thumb\/c20f5d8402383d1c1915abc5c96853b0.jpg","month":"03-2018","title":"Den lille festival, 2-4 marts 2018","city":"copenhagen","country":"Denmark","start_fr":"02\/03\/2018","end_fr":"04\/03\/2018","start_en":"2018-03-02","end_en":"2018-03-04","lat":"55.6760968","lng":"12.5683372","type":"tango-festival"},{"date_id":17736,"image":"","month":"03-2018","title":"EL TANGO DES RIAS 2018","city":"Quimperle","country":"France","start_fr":"02\/03\/2018","end_fr":"04\/03\/2018","start_en":"2018-03-02","end_en":"2018-03-04","lat":"47.87258600000001","lng":"-3.547546","type":"tango-marathon"},{"date_id":51837,"image":"uploads\/img\/thumb\/00480f0c830944132748bb4a6f12cfbd.jpg","month":"03-2018","title":"El Tango Des Rias 2018","city":"Concarneau","country":"France","start_fr":"02\/03\/2018","end_fr":"04\/03\/2018","start_en":"2018-03-02","end_en":"2018-03-04","lat":"47.872834","lng":"-3.920734","type":"tango-marathon"},{"date_id":53503,"image":"uploads\/img\/thumb\/b4495b11dc923bf91681654a4b2119ae.jpg","month":"03-2018","title":"Tango Weekend \u03c3\u03c4\u03b1 \u039a\u03b1\u03bb\u03ac\u03b2\u03c1\u03c5\u03c4\u03b1!","city":"Greece","country":"United States","start_fr":"02\/03\/2018","end_fr":"04\/03\/2018","start_en":"2018-03-02","end_en":"2018-03-04","lat":"43.2097837","lng":"-77.6930602","type":"tango-week-end"},{"date_id":54432,"image":"uploads\/img\/thumb\/e3fea0f11fa6c04647227d9eb15a6f26.jpg","month":"03-2018","title":"Weekend of Tango Mastery with Brian Dunn","city":"Sioux Falls","country":"United States","start_fr":"02\/03\/2018","end_fr":"04\/03\/2018","start_en":"2018-03-02","end_en":"2018-03-04","lat":"43.5445959","lng":"-96.73110340000001","type":"tango-week-end"},{"date_id":23991,"image":"uploads\/img\/thumb\/ba71c4f62cf7fed82a516b0a13631fde.jpg","month":"03-2018","title":"Tan(GO)thic Molinete 2018 - 6 edition","city":"Torun","country":"Poland","start_fr":"02\/03\/2018","end_fr":"04\/03\/2018","start_en":"2018-03-02","end_en":"2018-03-04","lat":"53.0137902","lng":"18.5984437","type":"tango-marathon"},{"date_id":13053,"image":"uploads\/img\/thumb\/6be5b18cdc44aed2e8fed54e5755b873.jpg","month":"03-2018","title":"Clarisa Aragon & Jonathan Saavedra - Spring Tango Festivalito","city":"Glasgow","country":"United Kingdom","start_fr":"02\/03\/2018","end_fr":"04\/03\/2018","start_en":"2018-03-02","end_en":"2018-03-04","lat":"55.864237","lng":"-4.251806","type":"tango-festival"},{"date_id":29972,"image":"uploads\/img\/thumb\/9ee499d9bfdaa8ab86ef837a03513263.jpg","month":"03-2018","title":"Italia Milonguera@Spring Tango Festivalito","city":"Glasgow","country":"United Kingdom","start_fr":"02\/03\/2018","end_fr":"04\/03\/2018","start_en":"2018-03-02","end_en":"2018-03-04","lat":"55.864237","lng":"-4.251806","type":"tango-festival"},{"date_id":41760,"image":"uploads\/img\/thumb\/6d964c0cb868f47d8220898ce19c8cce.jpg","month":"03-2018","title":"Kavakava Tango Weekend 03","city":"Oslo","country":"Norway","start_fr":"02\/03\/2018","end_fr":"04\/03\/2018","start_en":"2018-03-02","end_en":"2018-03-04","lat":"59.9138688","lng":"10.7522454","type":"tango-week-end"},{"date_id":47801,"image":"uploads\/img\/thumb\/2639d4ca9e21ec2b4f1fbbc14df4db3e.jpg","month":"03-2018","title":"Kaimak Inn & Tango Weekend 3 & 4 \u039c\u03b1\u03c1\u03c4\u03af\u03bf\u03c5","city":"Edessa","country":"Greece","start_fr":"03\/03\/2018","end_fr":"04\/03\/2018","start_en":"2018-03-03","end_en":"2018-03-04","lat":"40.8016803","lng":"22.0439798","type":"voyage-tango"},{"date_id":50287,"image":"uploads\/img\/thumb\/69576d3980a89270b8135c05d9fc7039.jpg","month":"03-2018","title":"2\u00b0 Encuentro de Tango Contact - Mar del Plata, Argentina","city":"Mar del plata","country":"Argentina","start_fr":"05\/03\/2018","end_fr":"12\/03\/2018","start_en":"2018-03-05","end_en":"2018-03-12","lat":"-38.0054771","lng":"-57.5426106","type":"tango-festival"},{"date_id":43469,"image":"uploads\/img\/thumb\/52804931142a580fda3f5ceb039e21ab.jpg","month":"03-2018","title":"Bologna TM - Bologna Transit Milongas","city":"Bologna","country":"Italy","start_fr":"05\/03\/2018","end_fr":"09\/03\/2018","start_en":"2018-03-05","end_en":"2018-03-09","lat":"44.494887","lng":"11.3426162","type":"tango-week-end"},{"date_id":53971,"image":"uploads\/img\/thumb\/7a24ea9abebc7c0c1c8d49a57116f603.jpg","month":"03-2018","title":"\u041f\u043e\u0435\u0437\u0434\u043a\u0430 \u043d\u0430 \"Minsk spring tango festival #7\"","city":"Moscow","country":"Russia","start_fr":"08\/03\/2018","end_fr":"12\/03\/2018","start_en":"2018-03-08","end_en":"2018-03-12","lat":"55.755826","lng":"37.6172999","type":"tango-festival"},{"date_id":26985,"image":"uploads\/img\/thumb\/250b60e111bb8005e35bd5a5981e899e.jpg","month":"03-2018","title":"Tango e Neve 2018","city":"Bressanone","country":"Italy","start_fr":"08\/03\/2018","end_fr":"11\/03\/2018","start_en":"2018-03-08","end_en":"2018-03-11","lat":"46.7177048","lng":"11.6572436","type":"voyage-tango"},{"date_id":14022,"image":"uploads\/img\/thumb\/bb4550b78ae11f8b6314409ceea2bd14.jpg","month":"03-2018","title":"Tucson Tango Festival","city":"Tucson","country":"United States","start_fr":"08\/03\/2018","end_fr":"12\/03\/2018","start_en":"2018-03-08","end_en":"2018-03-12","lat":"32.2217429","lng":"-110.926479","type":"tango-festival"},{"date_id":20098,"image":"uploads\/img\/thumb\/8d8156a944583bbc32f47ea59812bd9c.jpg","month":"03-2018","title":"Minsk Spring Tango Festival #7","city":"Minsk","country":"Belarus","start_fr":"08\/03\/2018","end_fr":"12\/03\/2018","start_en":"2018-03-08","end_en":"2018-03-12","lat":"53.90453979999999","lng":"27.5615244","type":"tango-festival"},{"date_id":11176,"image":"uploads\/img\/thumb\/51fa2049616f374001530338fd51dcb6.jpg","month":"03-2018","title":"Encuentro+ 2018","city":"Newport News","country":"United States","start_fr":"08\/03\/2018","end_fr":"12\/03\/2018","start_en":"2018-03-08","end_en":"2018-03-12","lat":"37.0870821","lng":"-76.4730122","type":"tango-encuentro"},{"date_id":50295,"image":"uploads\/img\/thumb\/530dbde3510c8d69372f14bfd5ee5d0e.jpg","month":"03-2018","title":"Festivalito Alicantino 2018","city":"Alicante","country":"Spain","start_fr":"08\/03\/2018","end_fr":"11\/03\/2018","start_en":"2018-03-08","end_en":"2018-03-11","lat":"38.3459963","lng":"-0.4906855","type":"tango-festival"},{"date_id":28082,"image":"uploads\/img\/thumb\/82a6d0c197d32ede3c09a1ec3278fdb1.jpg","month":"03-2018","title":"Ocho Pasos, 4th edition, Poznan Tango Festival","city":"Poznan","country":"Poland","start_fr":"08\/03\/2018","end_fr":"11\/03\/2018","start_en":"2018-03-08","end_en":"2018-03-11","lat":"52.406374","lng":"16.9251681","type":"tango-festival"},{"date_id":26753,"image":"uploads\/img\/thumb\/9327185bf38d980785eef78fd8eca153.jpg","month":"03-2018","title":"\u0423\u0420\u0410\u041b\u042c\u0421\u041a\u0418\u0419 \u0422\u0410\u041d\u0413\u041e \u041c\u0410\u0420\u0410\u0424\u041e\u041d","city":"Yekaterinburg","country":"Russia","start_fr":"08\/03\/2018","end_fr":"11\/03\/2018","start_en":"2018-03-08","end_en":"2018-03-11","lat":"56.83892609999999","lng":"60.6057025","type":"voyage-tango"},{"date_id":8088,"image":"uploads\/img\/thumb\/c9c3085f4ed75cffb46dbedc1fb146ab.jpg","month":"03-2018","title":"GRAZy TANGO Festival 2018","city":"Graz","country":"Austria","start_fr":"08\/03\/2018","end_fr":"11\/03\/2018","start_en":"2018-03-08","end_en":"2018-03-11","lat":"47.070714","lng":"15.439504","type":"tango-festival"},{"date_id":53319,"image":"uploads\/img\/thumb\/b7f914f2a377b7d8466283912922bf76.jpg","month":"03-2018","title":"3\u03bc\u03b5\u03c1\u03bf tango \u03ba\u03b1\u03b9 spa \u03c3\u03c4\u03bf L.A. (\u039b\u03bf\u03c5\u03c4\u03c1\u03ac \u0391\u03b9\u03b4\u03b7\u03c8\u03bf\u03cd)","city":"Athens","country":"Greece","start_fr":"09\/03\/2018","end_fr":"11\/03\/2018","start_en":"2018-03-09","end_en":"2018-03-11","lat":"37.9838096","lng":"23.7275388","type":"tango-week-end"},{"date_id":29977,"image":"uploads\/img\/thumb\/1253a41b902b677de607396e9eada545.jpg","month":"03-2018","title":"Sientome Tango Weekend 2nd edition","city":"Shanghai","country":"China","start_fr":"09\/03\/2018","end_fr":"12\/03\/2018","start_en":"2018-03-09","end_en":"2018-03-12","lat":"31.2303904","lng":"121.4737021","type":"tango-week-end"},{"date_id":44965,"image":"uploads\/img\/thumb\/c1deca70ba0fbc87f25f1593f4094108.jpg","month":"03-2018","title":"Marathon Tanguera Argentina en el Mar.","city":"Tandil","country":"Argentina","start_fr":"09\/03\/2018","end_fr":"11\/03\/2018","start_en":"2018-03-09","end_en":"2018-03-11","lat":"-37.3287999","lng":"-59.1367167","type":"tango-marathon"},{"date_id":51242,"image":"uploads\/img\/thumb\/1eca7c517c77b0774771f2acbf9a78a1.jpg","month":"03-2018","title":"Bari Tango Bus - Mujeres Tango Festival - Napoli 9 marzo","city":"Napoli","country":"Italy","start_fr":"09\/03\/2018","end_fr":"10\/03\/2018","start_en":"2018-03-09","end_en":"2018-03-10","lat":"40.8517746","lng":"14.2681244","type":"tango-festival"},{"date_id":52808,"image":"uploads\/img\/thumb\/e94a0b666f242d305e9495cd47d08ca3.jpg","month":"03-2018","title":"Femme faTANGO 2018, Frauen-Tango-Festival in Stuttgart","city":"Stuttgart","country":"Germany","start_fr":"09\/03\/2018","end_fr":"11\/03\/2018","start_en":"2018-03-09","end_en":"2018-03-11","lat":"48.7758459","lng":"9.1829321","type":"tango-festival"},{"date_id":19316,"image":"uploads\/img\/thumb\/1b0a12832ade4425b1baf703e85843e3.jpg","month":"03-2018","title":"Spring Tango Weekend with Ermis & Maria","city":"Iasi","country":"Romania","start_fr":"09\/03\/2018","end_fr":"12\/03\/2018","start_en":"2018-03-09","end_en":"2018-03-12","lat":"47.1584549","lng":"27.6014418","type":"tango-week-end"},{"date_id":45975,"image":"uploads\/img\/thumb\/8cd78ee23bca0a28e47fdb670fe94a97.jpg","month":"03-2018","title":"MujeresTangoFestival 2018 - Le Milonghe","city":"Napoli","country":"Italy","start_fr":"09\/03\/2018","end_fr":"11\/03\/2018","start_en":"2018-03-09","end_en":"2018-03-11","lat":"40.8517746","lng":"14.2681244","type":"tango-week-end"},{"date_id":50964,"image":"uploads\/img\/thumb\/13cef8f9e85028e0a2e334ca8d4992b3.jpg","month":"03-2018","title":"Weekend a tutto Tango con Clarisa Aragon e Jonathan Saavedra","city":"Cinisello Balsamo","country":"Italy","start_fr":"09\/03\/2018","end_fr":"11\/03\/2018","start_en":"2018-03-09","end_en":"2018-03-11","lat":"45.5583553","lng":"9.2143838","type":"tango-week-end"},{"date_id":14095,"image":"uploads\/img\/thumb\/0e2fbb3f0c44c25d6809bc758f4856ff.jpg","month":"03-2018","title":"Vietnam Holiday- Cultures & tango - March 2018","city":"Hanoi","country":"Vietnam","start_fr":"10\/03\/2018","end_fr":"24\/03\/2018","start_en":"2018-03-10","end_en":"2018-03-24","lat":"21.0277644","lng":"105.8341598","type":"voyage-tango"},{"date_id":54534,"image":"uploads\/img\/thumb\/a3a14440022077a9433f128734b0fe49.jpg","month":"03-2018","title":"Tango-\u03b1\u03c0\u03cc\u03b4\u03c1\u03b1\u03c3\u03b7 \u03c3\u03c4\u03b7 \u03bb\u03af\u03bc\u03bd\u03b7 \u039a\u03b5\u03c1\u03ba\u03af\u03bd\u03b7 10 & 11 \u039c\u03b1\u03c1\u03c4\u03af\u03bf\u03c5","city":"Kilkis","country":"Greece","start_fr":"10\/03\/2018","end_fr":"11\/03\/2018","start_en":"2018-03-10","end_en":"2018-03-11","lat":"40.99370709999999","lng":"22.8753674","type":"voyage-tango"},{"date_id":21293,"image":"uploads\/img\/thumb\/d1abee44b2cdab32ad784fddfb8d011a.jpg","month":"03-2018","title":"Ultimi 4 posti Vacanza Tango a Buenos Aires con Rita e Pablo","city":"Buenos Aires","country":"Argentina","start_fr":"10\/03\/2018","end_fr":"24\/03\/2018","start_en":"2018-03-10","end_en":"2018-03-24","lat":"-34.6036844","lng":"-58.3815591","type":"voyage-tango"},{"date_id":26893,"image":"uploads\/img\/thumb\/56e5028eed38b8ee07e19b9a3bed4571.jpg","month":"03-2018","title":"CITA 2018 - 20 years","city":"Buenos Aires","country":"Argentina","start_fr":"11\/03\/2018","end_fr":"18\/03\/2018","start_en":"2018-03-11","end_en":"2018-03-18","lat":"-34.6036844","lng":"-58.3815591","type":"tango-festival"},{"date_id":50353,"image":"uploads\/img\/thumb\/9f8aeefa111b890f294bdb0e3dec8258.jpg","month":"03-2018","title":"M\u00fcpamozi - Az utols\u00f3 tang\u00f3 P\u00e1rizsban (Ultimo tango a Parigi)","city":"Budapest","country":"Hungary","start_fr":"12\/03\/2018","end_fr":"12\/03\/2018","start_en":"2018-03-12","end_en":"2018-03-12","lat":"47.497912","lng":"19.040235","type":"tango-marathon"},{"date_id":16981,"image":"","month":"03-2018","title":"Viaggio Tango in India con asd Liberi Tutti","city":"Pondicherry","country":"India","start_fr":"12\/03\/2018","end_fr":"25\/03\/2018","start_en":"2018-03-12","end_en":"2018-03-25","lat":"11.9138598","lng":"79.8144722","type":"voyage-tango"},{"date_id":44961,"image":"uploads\/img\/thumb\/90b79af0d07eaed0742aad3c09126122.jpg","month":"03-2018","title":"San Miguel Tango Festival 2018","city":"San Miguel De Allende","country":"Mexico","start_fr":"14\/03\/2018","end_fr":"18\/03\/2018","start_en":"2018-03-14","end_en":"2018-03-18","lat":"20.9144491","lng":"-100.745235","type":"tango-festival"},{"date_id":7688,"image":"uploads\/img\/thumb\/ba498b04ed6b717ab62a21e86b8ec661.jpg","month":"03-2018","title":"Tango Chilango Festival and International Tango Open 2018","city":"Mexico","country":"Mexico","start_fr":"15\/03\/2018","end_fr":"20\/03\/2018","start_en":"2018-03-15","end_en":"2018-03-20","lat":"23.634501","lng":"-102.552784","type":"tango-festival"},{"date_id":37727,"image":"uploads\/img\/thumb\/2768c4ba6ac657a88a1a0ef49320fbbe.jpg","month":"03-2018","title":"Tango Feast Spring 15-18 March 2018 Devon England","city":"Paignton","country":"United Kingdom","start_fr":"15\/03\/2018","end_fr":"18\/03\/2018","start_en":"2018-03-15","end_en":"2018-03-18","lat":"50.43508","lng":"-3.564235","type":"tango-week-end"},{"date_id":8499,"image":"uploads\/img\/thumb\/4ba84f1c40a873306acdad2c769950c3.jpg","month":"03-2018","title":"Vietnam TANGO Marathon 2018 \/ Tango Salida de sol \/ TANGO M\u1eb6T TR\u1edcI M\u1eccC","city":"Hanoi","country":"Vietnam","start_fr":"16\/03\/2018","end_fr":"19\/03\/2018","start_en":"2018-03-16","end_en":"2018-03-19","lat":"21.0277644","lng":"105.8341598","type":"tango-marathon"},{"date_id":43081,"image":"uploads\/img\/thumb\/e45238f37d8b015119a4baec93c72234.jpg","month":"03-2018","title":"Un Tango a Lisbona","city":"Lisbon","country":"Portugal","start_fr":"16\/03\/2018","end_fr":"18\/03\/2018","start_en":"2018-03-16","end_en":"2018-03-18","lat":"38.7222524","lng":"-9.1393366","type":"voyage-tango"},{"date_id":12494,"image":"uploads\/img\/thumb\/944b04befafe5b944f71265b818420cc.jpg","month":"03-2018","title":"Tangoreise nach Buenos Aires vom 17. bis 31. M\u00e4rz 2018","city":"Buenos Aires","country":"Argentina","start_fr":"16\/03\/2018","end_fr":"30\/03\/2018","start_en":"2018-03-16","end_en":"2018-03-30","lat":"-34.6036844","lng":"-58.3815591","type":"tango-festival"},{"date_id":29988,"image":"uploads\/img\/thumb\/b65cd6cd310e429f43adf72ca07462c7.jpg","month":"03-2018","title":"Abano Tango Week End seconda edizione","city":"Abano Terme","country":"Italy","start_fr":"16\/03\/2018","end_fr":"18\/03\/2018","start_en":"2018-03-16","end_en":"2018-03-18","lat":"45.3587173","lng":"11.7882998","type":"tango-week-end"},{"date_id":53391,"image":"uploads\/img\/thumb\/0c5ccd4557fba9a86f4a0c8eae9dcf96.jpg","month":"03-2018","title":"Argentinsk tango i Dala-Floda","city":"Stockholm","country":"Sweden","start_fr":"16\/03\/2018","end_fr":"18\/03\/2018","start_en":"2018-03-16","end_en":"2018-03-18","lat":"59.32932349999999","lng":"18.0685808","type":"voyage-tango"},{"date_id":14089,"image":"uploads\/img\/thumb\/18a316d768624c9d6a042fa0c2027153.jpg","month":"03-2018","title":"2nd Cosmotango festival, Kaluga - 16-18 of march 2018","city":"Kaluga","country":"Russia","start_fr":"16\/03\/2018","end_fr":"18\/03\/2018","start_en":"2018-03-16","end_en":"2018-03-18","lat":"54.5518584","lng":"36.2850973","type":"tango-festival"},{"date_id":51230,"image":"uploads\/img\/thumb\/88aafb3e0c57a10132a10c5b6b25ecc2.jpg","month":"03-2018","title":"CT Tango Weekend 2018 with Dale Ellison","city":"Waterbury","country":"United States","start_fr":"16\/03\/2018","end_fr":"18\/03\/2018","start_en":"2018-03-16","end_en":"2018-03-18","lat":"41.5581525","lng":"-73.0514965","type":"tango-week-end"},{"date_id":13883,"image":"uploads\/img\/thumb\/bf8d3d218f6714ba5e7467cee6cb71d4.jpg","month":"03-2018","title":"ROYAL TANGO Marathon 4.","city":"Opole","country":"Poland","start_fr":"16\/03\/2018","end_fr":"18\/03\/2018","start_en":"2018-03-16","end_en":"2018-03-18","lat":"50.6751067","lng":"17.9212976","type":"tango-marathon"},{"date_id":23767,"image":"uploads\/img\/thumb\/f72d0b5e8ac0f6b55cb961ee1abbc38e.jpg","month":"03-2018","title":"2nd Sonando tango marathon Amsterdam","city":"Amsterdam","country":"Netherlands The","start_fr":"16\/03\/2018","end_fr":"18\/03\/2018","start_en":"2018-03-16","end_en":"2018-03-18","lat":"52.3702157","lng":"4.895167900000001","type":"tango-marathon"},{"date_id":41332,"image":"uploads\/img\/thumb\/455a27bdef7f7ea3a16ca67e11c5da9b.jpg","month":"03-2018","title":"ETS Spring Firbush Tango Weekend 2018","city":"Perth GB","country":"United Kingdom","start_fr":"16\/03\/2018","end_fr":"18\/03\/2018","start_en":"2018-03-16","end_en":"2018-03-18","lat":"56.394994","lng":"-3.4308381","type":"tango-week-end"},{"date_id":55485,"image":"uploads\/img\/thumb\/46510d07ffd4ddfafca88b5587ed2d72.jpg","month":"03-2018","title":"Festivalito Tango argentin","city":"Grenoble","country":"France","start_fr":"16\/03\/2018","end_fr":"18\/03\/2018","start_en":"2018-03-16","end_en":"2018-03-18","lat":"45.188529","lng":"5.724524","type":"tango-week-end"},{"date_id":45405,"image":"uploads\/img\/thumb\/098b801856753b4aa9cd3e92b4c0826e.jpg","month":"03-2018","title":"4\u00b0 Festival Tangofierro","city":"Siena","country":"Italy","start_fr":"16\/03\/2018","end_fr":"19\/03\/2018","start_en":"2018-03-16","end_en":"2018-03-19","lat":"43.31880899999999","lng":"11.3307574","type":"tango-festival"},{"date_id":2766,"image":"uploads\/img\/thumb\/2608cd594acaa62e5c7f0736d309c457.jpg","month":"03-2018","title":"Noches Porte\u00f1as - tango marathon in Warsaw 3rd edition","city":"Warsaw","country":"Poland","start_fr":"16\/03\/2018","end_fr":"18\/03\/2018","start_en":"2018-03-16","end_en":"2018-03-18","lat":"52.2296756","lng":"21.0122287","type":"tango-marathon"},{"date_id":52926,"image":"uploads\/img\/thumb\/488aac30997948082ecd718f2a62559b.jpg","month":"03-2018","title":"Tango en Primavera - 7th Edition - Vito Mu\u00f1oz y Claudio Cardona","city":"Timisoara","country":"Romania","start_fr":"16\/03\/2018","end_fr":"19\/03\/2018","start_en":"2018-03-16","end_en":"2018-03-19","lat":"45.7488716","lng":"21.2086793","type":"tango-week-end"},{"date_id":54300,"image":"uploads\/img\/thumb\/7669394f34c7fcc275dbde046b389b0b.jpg","month":"03-2018","title":"\"Haciendo Tango Festival\" 16\/17\/18 de Marzo de 2018","city":"Neuquen","country":"Argentina","start_fr":"16\/03\/2018","end_fr":"18\/03\/2018","start_en":"2018-03-16","end_en":"2018-03-18","lat":"-38.9516784","lng":"-68.0591888","type":"tango-festival"},{"date_id":45253,"image":"uploads\/img\/thumb\/e0151240bc67f5abe4376c313c2e494e.jpg","month":"03-2018","title":"Rome Dance Festival","city":"Roma","country":"Italy","start_fr":"17\/03\/2018","end_fr":"18\/03\/2018","start_en":"2018-03-17","end_en":"2018-03-18","lat":"41.9027835","lng":"12.4963655","type":"tango-festival"},{"date_id":51675,"image":"uploads\/img\/thumb\/179f414ed9668600b2e837338a0ebbaa.jpg","month":"03-2018","title":"H\u00e9tv\u00e9gi tang\u00f3 teljesen kezd\u0151knek!","city":"Budapest","country":"Hungary","start_fr":"17\/03\/2018","end_fr":"18\/03\/2018","start_en":"2018-03-17","end_en":"2018-03-18","lat":"47.497912","lng":"19.040235","type":"tango-marathon"},{"date_id":50310,"image":"uploads\/img\/thumb\/d7ce0e161fa16e6991abf42296c7c97d.jpg","month":"03-2018","title":"weekend tango 4D","city":"Lyon","country":"France","start_fr":"17\/03\/2018","end_fr":"18\/03\/2018","start_en":"2018-03-17","end_en":"2018-03-18","lat":"45.764043","lng":"4.835659","type":"tango-week-end"},{"date_id":54352,"image":"uploads\/img\/thumb\/9124dfcbce6de27e7b59b743e70f7c35.jpg","month":"03-2018","title":"Week-End TANGO En 4D ( 4 associations\/4 d\u00e9partements)","city":"Lyon","country":"France","start_fr":"17\/03\/2018","end_fr":"18\/03\/2018","start_en":"2018-03-17","end_en":"2018-03-18","lat":"45.764043","lng":"4.835659","type":"tango-week-end"},{"date_id":51645,"image":"uploads\/img\/thumb\/4ce194e3b40827758435def9e5d7f7b5.jpg","month":"03-2018","title":"Week-end Tango en 4D (4d\u00e9partements\/4 associations)","city":"Lyon","country":"France","start_fr":"17\/03\/2018","end_fr":"18\/03\/2018","start_en":"2018-03-17","end_en":"2018-03-18","lat":"45.764043","lng":"4.835659","type":"tango-week-end"},{"date_id":26927,"image":"uploads\/img\/thumb\/af6dbe872005aae9412d4130df628de9.jpg","month":"03-2018","title":"Newcastle Tango Festival (3rd edition)","city":"Newcastle","country":"Ireland","start_fr":"17\/03\/2018","end_fr":"18\/03\/2018","start_en":"2018-03-17","end_en":"2018-03-18","lat":"54.21614","lng":"-5.8920445","type":"tango-festival"},{"date_id":52731,"image":"uploads\/img\/thumb\/9a42b4f70e2deb30e31fcd6531c1be0d.jpg","month":"03-2018","title":"Pre-Salonissimo Tango Marathon 7h tango-aspettando Salonissimo","city":"Savona","country":"Italy","start_fr":"18\/03\/2018","end_fr":"19\/03\/2018","start_en":"2018-03-18","end_en":"2018-03-19","lat":"44.3425496","lng":"8.4293891","type":"tango-marathon"},{"date_id":30889,"image":"uploads\/img\/thumb\/df9b0c80f2e2a4b776deb1152315dc02.jpg","month":"03-2018","title":"Ensue\u00f1os Tango Festival","city":"Athens","country":"Greece","start_fr":"22\/03\/2018","end_fr":"26\/03\/2018","start_en":"2018-03-22","end_en":"2018-03-26","lat":"37.9838096","lng":"23.7275388","type":"tango-festival"},{"date_id":21606,"image":"uploads\/img\/thumb\/0c24e1af55f8a01e63e82ecef305fff7.jpg","month":"03-2018","title":"Soledad, the Queer Tango Festivalito","city":"San Francisco","country":"United States","start_fr":"22\/03\/2018","end_fr":"25\/03\/2018","start_en":"2018-03-22","end_en":"2018-03-25","lat":"37.7749295","lng":"-122.4194155","type":"tango-festival"},{"date_id":49722,"image":"uploads\/img\/thumb\/14b9ba6e8c78307f48d7b5478f959cae.jpg","month":"03-2018","title":"Excursie Tango la Berlin","city":"Berlin","country":"Germany","start_fr":"23\/03\/2018","end_fr":"26\/03\/2018","start_en":"2018-03-23","end_en":"2018-03-26","lat":"52.52000659999999","lng":"13.404954","type":"tango-week-end"},{"date_id":16569,"image":"uploads\/img\/thumb\/45ad6b5de2e1a6dd89fb79cf276a9507.jpg","month":"03-2018","title":"Encuentro Milonguero La Cadena 2018","city":"Nijmegen","country":"Netherlands The","start_fr":"23\/03\/2018","end_fr":"25\/03\/2018","start_en":"2018-03-23","end_en":"2018-03-25","lat":"51.8125626","lng":"5.8372264","type":"tango-encuentro"},{"date_id":42366,"image":"uploads\/img\/thumb\/1f50baef8074686c539845164b4c898b.jpg","month":"03-2018","title":"FiuggiTangoMeeting","city":"Fiuggi","country":"Italy","start_fr":"23\/03\/2018","end_fr":"25\/03\/2018","start_en":"2018-03-23","end_en":"2018-03-25","lat":"41.8132663","lng":"13.2317225","type":"tango-week-end"},{"date_id":45046,"image":"uploads\/img\/thumb\/3507534701437b88ef3a800d607e0c13.jpg","month":"03-2018","title":"5\u00b0 Tangoweekend with Sebastian Arce at Tangoloft Vienna","city":"Vienna","country":"Austria","start_fr":"23\/03\/2018","end_fr":"25\/03\/2018","start_en":"2018-03-23","end_en":"2018-03-25","lat":"48.2081743","lng":"16.3738189","type":"tango-week-end"},{"date_id":20226,"image":"uploads\/img\/thumb\/74a5db72e08ab0baa4a1c587b0464622.jpg","month":"03-2018","title":"Austin Spring Tango Festival 2018","city":"Austin","country":"United States","start_fr":"23\/03\/2018","end_fr":"26\/03\/2018","start_en":"2018-03-23","end_en":"2018-03-26","lat":"30.267153","lng":"-97.7430608","type":"tango-festival"},{"date_id":50294,"image":"uploads\/img\/thumb\/95721cf7f4b848656d53c6ed3614b5b9.jpg","month":"03-2018","title":"Tallinn Tango Festivalito","city":"Tallinn","country":"Estonia","start_fr":"23\/03\/2018","end_fr":"25\/03\/2018","start_en":"2018-03-23","end_en":"2018-03-25","lat":"59.43696079999999","lng":"24.7535747","type":"tango-festival"},{"date_id":26737,"image":"uploads\/img\/thumb\/972d062058ea888b4b3d0f1794264c61.jpg","month":"03-2018","title":"6th Primavera Budapest Tango Marathon 23-25 March 2018","city":"Budapest","country":"Hungary","start_fr":"23\/03\/2018","end_fr":"25\/03\/2018","start_en":"2018-03-23","end_en":"2018-03-25","lat":"47.497912","lng":"19.040235","type":"tango-marathon"},{"date_id":49502,"image":"uploads\/img\/thumb\/3ab97081efbc4c61c37f3b05f67f9480.jpg","month":"03-2018","title":"Tango Weekend cu Spa la Baile Felix","city":"Oradea","country":"Romania","start_fr":"23\/03\/2018","end_fr":"25\/03\/2018","start_en":"2018-03-23","end_en":"2018-03-25","lat":"47.04650050000001","lng":"21.9189438","type":"tango-week-end"},{"date_id":50825,"image":"uploads\/img\/thumb\/2d23c7294cccd6e906264c06f4c64d51.jpg","month":"03-2018","title":"Week-end en roulotte !","city":"Lyon","country":"France","start_fr":"23\/03\/2018","end_fr":"26\/03\/2018","start_en":"2018-03-23","end_en":"2018-03-26","lat":"45.764043","lng":"4.835659","type":"tango-week-end"},{"date_id":23570,"image":"uploads\/img\/thumb\/63fd50cdbaef532187d6fec0f2ae09c3.jpg","month":"03-2018","title":"10th Maracuentro - Stuttgart edition 2018","city":"Stuttgart","country":"Germany","start_fr":"23\/03\/2018","end_fr":"25\/03\/2018","start_en":"2018-03-23","end_en":"2018-03-25","lat":"48.7758459","lng":"9.1829321","type":"tango-marathon"},{"date_id":18154,"image":"uploads\/img\/thumb\/3aa33afb0351ec7d3ca4516f44eec4e7.jpg","month":"03-2018","title":"MilonGato Tango Festival 2018 - March 23 - 25","city":"Kharkiv","country":"Ukraine","start_fr":"23\/03\/2018","end_fr":"25\/03\/2018","start_en":"2018-03-23","end_en":"2018-03-25","lat":"49.9935","lng":"36.230383","type":"tango-festival"},{"date_id":21764,"image":"uploads\/img\/thumb\/98986d1ea67cb11b699bb2a536fc5144.jpg","month":"03-2018","title":"Tango Tour To Buenos Aires With DA","city":"Buenos Aires","country":"Argentina","start_fr":"24\/03\/2018","end_fr":"31\/03\/2018","start_en":"2018-03-24","end_en":"2018-03-31","lat":"-34.6036844","lng":"-58.3815591","type":"voyage-tango"},{"date_id":55937,"image":"uploads\/img\/thumb\/d82449bf9f1ace0fa6d1a1e458bb68fe.jpg","month":"03-2018","title":"Festivalito Tango Nancy 24-25 mars 2018","city":"Laxou","country":"France","start_fr":"24\/03\/2018","end_fr":"25\/03\/2018","start_en":"2018-03-24","end_en":"2018-03-25","lat":"48.684256","lng":"6.152525","type":"tango-festival"},{"date_id":32045,"image":"uploads\/img\/thumb\/9c8c4ac217f7b4ddcbfd608044e8b67c.jpg","month":"03-2018","title":"Week-End Folklore Argentin","city":"Albi","country":"France","start_fr":"24\/03\/2018","end_fr":"25\/03\/2018","start_en":"2018-03-24","end_en":"2018-03-25","lat":"43.9250853","lng":"2.1486413","type":"tango-week-end"},{"date_id":21237,"image":"uploads\/img\/thumb\/7e6fea33b80cc7efa74170ce7d4fe11b.jpg","month":"03-2018","title":"Week-end Tango \/ Pilar Alvarez & Claudio Hoffmann","city":"Begles","country":"France","start_fr":"24\/03\/2018","end_fr":"25\/03\/2018","start_en":"2018-03-24","end_en":"2018-03-25","lat":"44.812023","lng":"-0.5437839999999999","type":"tango-week-end"},{"date_id":31649,"image":"uploads\/img\/thumb\/409d0b7b818cfb1fbe35ad2e9e53f415.jpg","month":"03-2018","title":"Tango CanYengue weekend in Brussels","city":"Bruxelles","country":"Belgium","start_fr":"24\/03\/2018","end_fr":"25\/03\/2018","start_en":"2018-03-24","end_en":"2018-03-25","lat":"50.8503463","lng":"4.3517211","type":"tango-week-end"},{"date_id":15833,"image":"uploads\/img\/thumb\/2aadef0f16f1430ac5e1b32cb5e15566.jpg","month":"03-2018","title":"2\u00b0 Encuentro Dos Dias con Los Ni\u00f1os: \"Da Chi Rag\u00e0s\"","city":"Parma","country":"Italy","start_fr":"24\/03\/2018","end_fr":"25\/03\/2018","start_en":"2018-03-24","end_en":"2018-03-25","lat":"44.801485","lng":"10.3279036","type":"tango-encuentro"},{"date_id":30620,"image":"uploads\/img\/thumb\/dc3c09e6693f56a8a7f687f9f664ecdd.jpg","month":"03-2018","title":"Ostern Buenos Aires & Pampa","city":"Buenos Aires","country":"Argentina","start_fr":"25\/03\/2018","end_fr":"06\/04\/2018","start_en":"2018-03-25","end_en":"2018-04-06","lat":"-34.6036844","lng":"-58.3815591","type":"voyage-tango"},{"date_id":33356,"image":"uploads\/img\/thumb\/d5cfd4c85be614af56db5921f68892a6.jpg","month":"03-2018","title":"Easter Tango Holiday at Lake Chiemsee\/Bavaria","city":"Munich","country":"Germany","start_fr":"28\/03\/2018","end_fr":"02\/04\/2018","start_en":"2018-03-28","end_en":"2018-04-02","lat":"48.1351253","lng":"11.5819805","type":"voyage-tango"},{"date_id":27119,"image":"uploads\/img\/thumb\/59598019114062f14a634bba35191407.jpg","month":"03-2018","title":"TangoTorinoFestival - SuperSabino plays","city":"Torino","country":"Italy","start_fr":"29\/03\/2018","end_fr":"02\/04\/2018","start_en":"2018-03-29","end_en":"2018-04-02","lat":"45.070312","lng":"7.686856499999999","type":"tango-festival"},{"date_id":24052,"image":"uploads\/img\/thumb\/02dca42be22be30fc421b6036c3c984d.jpg","month":"03-2018","title":"Monumental Abrazos Tango Meeting Tercera Edici\u00f3n","city":"Alicante","country":"Spain","start_fr":"29\/03\/2018","end_fr":"01\/04\/2018","start_en":"2018-03-29","end_en":"2018-04-01","lat":"38.3459963","lng":"-0.4906855","type":"tango-week-end"},{"date_id":23584,"image":"uploads\/img\/thumb\/d095ea426700b721545ed2c640fbeb4f.jpg","month":"03-2018","title":"Tango Easter Festival Malm\u00f6 2018","city":"Malm\u00f6","country":"Sweden","start_fr":"29\/03\/2018","end_fr":"02\/04\/2018","start_en":"2018-03-29","end_en":"2018-04-02","lat":"55.604981","lng":"13.003822","type":"tango-festival"},{"date_id":16867,"image":"uploads\/img\/thumb\/0756589e47ad7cce3f4a4246d0fd6432.jpg","month":"03-2018","title":"Argentine Tango USA Official Championship & Tango Festival","city":"Burlingame","country":"United States","start_fr":"29\/03\/2018","end_fr":"02\/04\/2018","start_en":"2018-03-29","end_en":"2018-04-02","lat":"37.5778696","lng":"-122.34809","type":"tango-festival"},{"date_id":21365,"image":"uploads\/img\/thumb\/7170a227db0e5836125a877c7847c639.jpg","month":"03-2018","title":"Soledad QT Festivalito Montreal","city":"Montr\u00e9al","country":"Canada","start_fr":"29\/03\/2018","end_fr":"02\/04\/2018","start_en":"2018-03-29","end_en":"2018-04-02","lat":"45.5016889","lng":"-73.567256","type":"tango-festival"},{"date_id":39649,"image":"uploads\/img\/thumb\/e7c0717a9b5e0c61acfcbeb259e13bd2.jpg","month":"03-2018","title":"Lovely Tango weekend","city":"Amsterdam","country":"Netherlands The","start_fr":"29\/03\/2018","end_fr":"02\/04\/2018","start_en":"2018-03-29","end_en":"2018-04-02","lat":"52.3702157","lng":"4.895167900000001","type":"tango-week-end"},{"date_id":51680,"image":"uploads\/img\/thumb\/bf7d9a2e81d0b1647f4f878ba30133f4.jpg","month":"03-2018","title":"Amarillo | Amsterdam Easter Tango - 29 March - 2 April","city":"Amsterdam","country":"Netherlands The","start_fr":"29\/03\/2018","end_fr":"02\/04\/2018","start_en":"2018-03-29","end_en":"2018-04-02","lat":"52.3702157","lng":"4.895167900000001","type":"tango-week-end"},{"date_id":55486,"image":"uploads\/img\/thumb\/36a742397778ede1cfc0cee8830d0ef1.jpg","month":"03-2018","title":"18\u00b0 Tango Torino Festival","city":"Torino","country":"Italy","start_fr":"29\/03\/2018","end_fr":"29\/03\/2018","start_en":"2018-03-29","end_en":"2018-03-29","lat":"45.070312","lng":"7.686856499999999","type":"tango-festival"},{"date_id":22994,"image":"uploads\/img\/thumb\/928163cb16afbfe91a7656fe6e439aec.jpg","month":"03-2018","title":"Trasnochando: 5 days & nights of tango - 29 March - 2 April 2018","city":"Berlin","country":"Germany","start_fr":"29\/03\/2018","end_fr":"02\/04\/2018","start_en":"2018-03-29","end_en":"2018-04-02","lat":"52.52000659999999","lng":"13.404954","type":"tango-festival"},{"date_id":26012,"image":"uploads\/img\/thumb\/6887c39ea86bc667687cf1a4a1acae8d.jpg","month":"03-2018","title":"Intriga Tango Festival","city":"Thessaloniki","country":"Greece","start_fr":"29\/03\/2018","end_fr":"01\/04\/2018","start_en":"2018-03-29","end_en":"2018-04-01","lat":"40.6400629","lng":"22.9444191","type":"tango-festival"},{"date_id":26364,"image":"uploads\/img\/thumb\/85281b0ee1716cbca6b10fffef9b6433.jpg","month":"03-2018","title":"Easter Tango MARathon in Sperlonga, Italy","city":"Gaeta","country":"Italy","start_fr":"30\/03\/2018","end_fr":"02\/04\/2018","start_en":"2018-03-30","end_en":"2018-04-02","lat":"41.2107299","lng":"13.5714285","type":"tango-marathon"},{"date_id":52068,"image":"uploads\/img\/thumb\/3e35555f9aa8275d8fd017809511b92c.jpg","month":"03-2018","title":"Paasweekend met Paola Orlando en Peter Ina in Drente","city":"Westerveld","country":"Netherlands The","start_fr":"30\/03\/2018","end_fr":"02\/04\/2018","start_en":"2018-03-30","end_en":"2018-04-02","lat":"52.8577076","lng":"6.2960103","type":"tango-week-end"},{"date_id":43949,"image":"uploads\/img\/thumb\/5d052b4a7ececcfaee41f57f395725c2.jpg","month":"03-2018","title":"Pasqua Tango Festival 30Marzo\/2Aprile 2018 Monticelli Terme \u2013PR-","city":"Marcon","country":"Italy","start_fr":"30\/03\/2018","end_fr":"02\/04\/2018","start_en":"2018-03-30","end_en":"2018-04-02","lat":"45.5574362","lng":"12.2989231","type":"tango-festival"},{"date_id":20874,"image":"uploads\/img\/thumb\/df031de44241503c15a4a4e5a8377626.jpg","month":"03-2018","title":"Tango Friends Mouscron: easter edition (COMPLET)","city":"Mouscron","country":"Belgium","start_fr":"30\/03\/2018","end_fr":"01\/04\/2018","start_en":"2018-03-30","end_en":"2018-04-01","lat":"50.7459126","lng":"3.2192907","type":"tango-marathon"},{"date_id":27125,"image":"uploads\/img\/thumb\/d4adc772a8d065b5c258a8c6804fe5df.jpg","month":"03-2018","title":"Dulce de Lecques # 2","city":"La Ciotat","country":"France","start_fr":"30\/03\/2018","end_fr":"02\/04\/2018","start_en":"2018-03-30","end_en":"2018-04-02","lat":"43.17365299999999","lng":"5.605155","type":"tango-week-end"},{"date_id":32277,"image":"uploads\/img\/thumb\/8a656d58262378c7ddcbb5d6552b8678.jpg","month":"03-2018","title":"30\/03-01\/04 TangoWeekend \u0441 \u0412\u0438\u043a\u0442\u043e\u0440\u0438\u0435\u0439 \u0420\u044b\u0431\u0430\u043b\u044c\u0447\u0435\u043d\u043a\u043e","city":"Sevastopol","country":"Ukraine","start_fr":"30\/03\/2018","end_fr":"01\/04\/2018","start_en":"2018-03-30","end_en":"2018-04-01","lat":"44.61665","lng":"33.5253671","type":"tango-week-end"},{"date_id":27888,"image":"uploads\/img\/thumb\/6a3680040696b7b1102c80b283046402.jpg","month":"03-2018","title":"Festival Primavera del Tango 2018","city":"Brest","country":"France","start_fr":"30\/03\/2018","end_fr":"02\/04\/2018","start_en":"2018-03-30","end_en":"2018-04-02","lat":"48.390394","lng":"-4.486076","type":"tango-festival"},{"date_id":50963,"image":"uploads\/img\/thumb\/da9ea0bab04e326e4ce388636686962f.jpg","month":"03-2018","title":"Eastonathon","city":"Windsor","country":"United Kingdom","start_fr":"30\/03\/2018","end_fr":"01\/04\/2018","start_en":"2018-03-30","end_en":"2018-04-01","lat":"51.4817279","lng":"-0.613576","type":"tango-marathon"},{"date_id":26948,"image":"uploads\/img\/thumb\/d8195e46eca3fc65e21640ed436a5a50.jpg","month":"03-2018","title":"Brussels Milongas Week-End 3","city":"Bruxelles","country":"Belgium","start_fr":"30\/03\/2018","end_fr":"01\/04\/2018","start_en":"2018-03-30","end_en":"2018-04-01","lat":"50.8503463","lng":"4.3517211","type":"tango-week-end"},{"date_id":8207,"image":"uploads\/img\/thumb\/1127aa2c19241b7adfa28676d7513a07.jpg","month":"03-2018","title":"30 March-2 April: Red Rabbit Roma Neotango Festival 7th ed.","city":"Roma","country":"Italy","start_fr":"30\/03\/2018","end_fr":"31\/03\/2018","start_en":"2018-03-30","end_en":"2018-03-31","lat":"41.9027835","lng":"12.4963655","type":"tango-festival"},{"date_id":22479,"image":"","month":"03-2018","title":"PORQUEROLLES TANGO MEETING","city":"Hyeres","country":"France","start_fr":"31\/03\/2018","end_fr":"02\/04\/2018","start_en":"2018-03-31","end_en":"2018-04-02","lat":"43.120541","lng":"6.128639","type":"voyage-tango"},{"date_id":49505,"image":"uploads\/img\/thumb\/bbb8287415be65e773bf955f39e92508.jpg","month":"03-2018","title":"Week-end Tango Malena Baila - Nevers St Eloi","city":"Nevers","country":"France","start_fr":"31\/03\/2018","end_fr":"02\/04\/2018","start_en":"2018-03-31","end_en":"2018-04-02","lat":"46.99089600000001","lng":"3.162845","type":"tango-week-end"},{"date_id":28234,"image":"uploads\/img\/thumb\/b621514471790dad454b5c7fd6c6acb2.jpg","month":"03-2018","title":"Salento Tango Fest. Lecce Pasqua 2018","city":"Lecce","country":"Italy","start_fr":"31\/03\/2018","end_fr":"02\/04\/2018","start_en":"2018-03-31","end_en":"2018-04-02","lat":"40.3515155","lng":"18.1750161","type":"tango-festival"},{"date_id":47997,"image":"uploads\/img\/thumb\/4d24ec47ff0f1f5b324b46ff835a4e0f.jpg","month":"03-2018","title":"Maratona di Pasqua alla Milonga de Mis Amores","city":"Verona","country":"Italy","start_fr":"31\/03\/2018","end_fr":"03\/04\/2018","start_en":"2018-03-31","end_en":"2018-04-03","lat":"45.43838419999999","lng":"10.9916215","type":"tango-marathon"},{"date_id":54355,"image":"uploads\/img\/thumb\/10a37f5d02d0041b9c2e48969481a20e.jpg","month":"03-2018","title":"Vienna Easter Tango Weekend 2018","city":"Vienna","country":"Austria","start_fr":"31\/03\/2018","end_fr":"02\/04\/2018","start_en":"2018-03-31","end_en":"2018-04-02","lat":"48.2081743","lng":"16.3738189","type":"tango-week-end"},{"date_id":10030,"image":"uploads\/img\/thumb\/4dba12c660938fd4805d5667028fe280.jpg","month":"03-2018","title":"OPHIS TANGO Marathon 2018 - Iscrizioni Aperte","city":"Martinsicuro","country":"Italy","start_fr":"31\/03\/2018","end_fr":"03\/04\/2018","start_en":"2018-03-31","end_en":"2018-04-03","lat":"42.8869619","lng":"13.9131944","type":"tango-marathon"},{"date_id":53211,"image":"uploads\/img\/thumb\/21168f102586c9dfa26a3a461e5e09c2.jpg","month":"04-2018","title":"Oster Tango Tage: Ostermilongas & Strictly Milonguero Seminar","city":"Heidelberg","country":"Germany","start_fr":"01\/04\/2018","end_fr":"02\/04\/2018","start_en":"2018-04-01","end_en":"2018-04-02","lat":"49.3987524","lng":"8.6724335","type":"tango-week-end"},{"date_id":18030,"image":"uploads\/img\/thumb\/794bc464ae758142997a6764786e8193.jpg","month":"04-2018","title":"TangoKarma Bali, Indonesia Aprile 2018","city":"Bali IN","country":"India","start_fr":"02\/04\/2018","end_fr":"07\/04\/2018","start_en":"2018-04-02","end_en":"2018-04-07","lat":"25.1909176","lng":"73.28538160000001","type":"tango-festival"},{"date_id":22481,"image":"uploads\/img\/thumb\/cbf185bb4c1a82b131efda012f78cc07.jpg","month":"04-2018","title":"El Abrazo de Riga * La Primavera * Festivalito de Tango * Apr5-9","city":"Riga","country":"Latvia","start_fr":"05\/04\/2018","end_fr":"09\/04\/2018","start_en":"2018-04-05","end_en":"2018-04-09","lat":"56.9496487","lng":"24.1051865","type":"tango-festival"},{"date_id":31642,"image":"uploads\/img\/thumb\/c8847857f133275ef06ba5794493ae7c.jpg","month":"04-2018","title":"Ankara Tango Meeting Vol.4","city":"Ankara","country":"Turkey","start_fr":"05\/04\/2018","end_fr":"08\/04\/2018","start_en":"2018-04-05","end_en":"2018-04-08","lat":"39.9333635","lng":"32.8597419","type":"tango-festival"},{"date_id":31186,"image":"uploads\/img\/thumb\/fd87bde1767f06fbb7d2d4b17c1d8aa5.jpg","month":"04-2018","title":"Bella Ciao au Ch\u00e2teau - Marathon - 6, 7, 8 avril 2018","city":"Tours","country":"France","start_fr":"06\/04\/2018","end_fr":"09\/04\/2018","start_en":"2018-04-06","end_en":"2018-04-09","lat":"47.394144","lng":"0.68484","type":"tango-marathon"},{"date_id":37562,"image":"uploads\/img\/thumb\/80ab06ca7892f87ea19764e6721eec50.jpg","month":"04-2018","title":"6\u00b0 ISEO TANGO","city":"Bergamo","country":"Italy","start_fr":"06\/04\/2018","end_fr":"08\/04\/2018","start_en":"2018-04-06","end_en":"2018-04-08","lat":"45.6982642","lng":"9.6772698","type":"voyage-tango"},{"date_id":18578,"image":"uploads\/img\/thumb\/8fa68a592da164c1fae8c379dd76f0bd.jpg","month":"04-2018","title":"5th UK Tango Festival & Championship 2018 - London","city":"London","country":"United Kingdom","start_fr":"06\/04\/2018","end_fr":"09\/04\/2018","start_en":"2018-04-06","end_en":"2018-04-09","lat":"51.5073509","lng":"-0.1277583","type":"tango-festival"},{"date_id":34088,"image":"uploads\/img\/thumb\/49c504c43dbda7541ffde98d346bdaf2.jpg","month":"04-2018","title":"4. Bendito Tango Marathon","city":"Regensburg","country":"Germany","start_fr":"06\/04\/2018","end_fr":"08\/04\/2018","start_en":"2018-04-06","end_en":"2018-04-08","lat":"49.0134297","lng":"12.1016236","type":"tango-marathon"},{"date_id":47912,"image":"uploads\/img\/thumb\/b9c4621bf4d0f46c6caa82bbc84b5a40.jpg","month":"04-2018","title":"Tango-Rollentausch","city":"Halle","country":"Germany","start_fr":"06\/04\/2018","end_fr":"08\/04\/2018","start_en":"2018-04-06","end_en":"2018-04-08","lat":"51.4969802","lng":"11.9688029","type":"tango-marathon"},{"date_id":29645,"image":"uploads\/img\/thumb\/a104e4d911d00cd5a4e35b1e52f9c7be.jpg","month":"04-2018","title":"Social Tango Marathon Freiburg","city":"Freiburg","country":"Germany","start_fr":"06\/04\/2018","end_fr":"08\/04\/2018","start_en":"2018-04-06","end_en":"2018-04-08","lat":"47.9990077","lng":"7.842104299999999","type":"tango-marathon"},{"date_id":41846,"image":"uploads\/img\/thumb\/901e6ce93144dcd9653065139af49c07.jpg","month":"04-2018","title":"Pablito's Encuentro 2018","city":"Mountain","country":"United States","start_fr":"06\/04\/2018","end_fr":"09\/04\/2018","start_en":"2018-04-06","end_en":"2018-04-09","lat":"41.9560631","lng":"-122.4433597","type":"tango-festival"},{"date_id":50296,"image":"uploads\/img\/thumb\/68563a55d8fbe540949de180d3fbeaa8.jpg","month":"04-2018","title":"Herner Tango Festivalito 2018","city":"Dortmund","country":"Germany","start_fr":"07\/04\/2018","end_fr":"08\/04\/2018","start_en":"2018-04-07","end_en":"2018-04-08","lat":"51.5135872","lng":"7.465298100000001","type":"tango-festival"},{"date_id":48473,"image":"uploads\/img\/thumb\/acafbf11a5c617e3fe48c522b484e92d.jpg","month":"04-2018","title":"Week-end Nature, danses de salon et SPA !","city":"Tours","country":"France","start_fr":"07\/04\/2018","end_fr":"08\/04\/2018","start_en":"2018-04-07","end_en":"2018-04-08","lat":"47.394144","lng":"0.68484","type":"tango-week-end"},{"date_id":24882,"image":"uploads\/img\/thumb\/38643eaa65aecd0eb375a522a9040754.jpg","month":"04-2018","title":"ETDS 7!","city":"Zola Predosa","country":"Italy","start_fr":"07\/04\/2018","end_fr":"09\/04\/2018","start_en":"2018-04-07","end_en":"2018-04-09","lat":"44.4884488","lng":"11.2155301","type":"tango-week-end"},{"date_id":19286,"image":"uploads\/img\/thumb\/20a6977a330a9b258fc350e688a8dd30.jpg","month":"04-2018","title":"TangoFest Dresden 2018","city":"Dresden","country":"Germany","start_fr":"10\/04\/2018","end_fr":"15\/04\/2018","start_en":"2018-04-10","end_en":"2018-04-15","lat":"51.0504088","lng":"13.7372621","type":"tango-festival"},{"date_id":31641,"image":"uploads\/img\/thumb\/c532b11dec7e29dcaa08f445baccb847.jpg","month":"04-2018","title":"2018 Toronto Primavera Tango Weekend","city":"Toronto","country":"Canada","start_fr":"12\/04\/2018","end_fr":"15\/04\/2018","start_en":"2018-04-12","end_en":"2018-04-15","lat":"43.653226","lng":"-79.3831843","type":"tango-week-end"},{"date_id":39211,"image":"uploads\/img\/thumb\/cef468ae2e723e71ee22d8332b8f25c0.jpg","month":"04-2018","title":"2018 Chicago Tango Festival","city":"Rosemont","country":"United States","start_fr":"12\/04\/2018","end_fr":"16\/04\/2018","start_en":"2018-04-12","end_en":"2018-04-16","lat":"41.98675069999999","lng":"-87.8721602","type":"tango-festival"},{"date_id":54532,"image":"uploads\/img\/thumb\/4aadfd3acc09e77033969b245d3b05a8.jpg","month":"04-2018","title":"Festivalito aqu\u00ed","city":"Harnosand","country":"Sweden","start_fr":"12\/04\/2018","end_fr":"15\/04\/2018","start_en":"2018-04-12","end_en":"2018-04-15","lat":"62.6322698","lng":"17.9408714","type":"tango-festival"},{"date_id":31323,"image":"uploads\/img\/thumb\/4831dc2b45a8ccd1bead65431c89cdb9.jpg","month":"04-2018","title":"II Escapada Milonguera Asturias - 12 al 15 de Abril 2018","city":"Gijon","country":"Spain","start_fr":"12\/04\/2018","end_fr":"15\/04\/2018","start_en":"2018-04-12","end_en":"2018-04-15","lat":"43.5322015","lng":"-5.6611195","type":"tango-week-end"},{"date_id":5480,"image":"uploads\/img\/thumb\/8c2b6c2a54f15aa6e72e5ce23a1317ca.jpg","month":"04-2018","title":"Warsaw Tango Marathon El Navegador - tu GPS en la Pista.","city":"Warsaw","country":"Poland","start_fr":"12\/04\/2018","end_fr":"15\/04\/2018","start_en":"2018-04-12","end_en":"2018-04-15","lat":"52.2296756","lng":"21.0122287","type":"tango-marathon"},{"date_id":20287,"image":"uploads\/img\/thumb\/47965b86a6ce5851e35cbf7054a6093f.jpg","month":"04-2018","title":"Riga Embrace - Jurmala Edition","city":"Riga","country":"Latvia","start_fr":"13\/04\/2018","end_fr":"15\/04\/2018","start_en":"2018-04-13","end_en":"2018-04-15","lat":"56.9496487","lng":"24.1051865","type":"tango-marathon"},{"date_id":29932,"image":"uploads\/img\/thumb\/f3967fdedc7346cee4844c413b317085.jpg","month":"04-2018","title":"Los Puentes Vol.2 Voyage!Tango marath - Nizhny Novgorod, Russia.","city":"Nizhni Novgorod","country":"Russia","start_fr":"13\/04\/2018","end_fr":"15\/04\/2018","start_en":"2018-04-13","end_en":"2018-04-15","lat":"56.2965039","lng":"43.93605900000001","type":"tango-marathon"},{"date_id":51977,"image":"uploads\/img\/thumb\/e5e283c607bdef9e27699b21ba66f260.jpg","month":"04-2018","title":"Cork Tango Festivalito 2018","city":"Cork","country":"Ireland","start_fr":"13\/04\/2018","end_fr":"15\/04\/2018","start_en":"2018-04-13","end_en":"2018-04-15","lat":"51.8968917","lng":"-8.4863157","type":"tango-festival"},{"date_id":55474,"image":"uploads\/img\/thumb\/5ed40c86f074ec71b53d547ac8165c51.jpg","month":"04-2018","title":"Encuentro Especial Tango en Abraz\u00e1ndonos Studio","city":"Mungia","country":"Spain","start_fr":"13\/04\/2018","end_fr":"15\/04\/2018","start_en":"2018-04-13","end_en":"2018-04-15","lat":"43.3544186","lng":"-2.8467037","type":"tango-week-end"},{"date_id":23659,"image":"uploads\/img\/thumb\/be95509941bdabe5795ef3ea4ad59c7a.jpg","month":"04-2018","title":"Encuentro Milyonguero","city":"Lyon","country":"France","start_fr":"13\/04\/2018","end_fr":"15\/04\/2018","start_en":"2018-04-13","end_en":"2018-04-15","lat":"45.764043","lng":"4.835659","type":"tango-encuentro"},{"date_id":21152,"image":"uploads\/img\/thumb\/c2f4192921ad4b160d788235d1372e36.jpg","month":"04-2018","title":"2018 Port Townsend Tango Retreat.","city":"Seattle","country":"United States","start_fr":"13\/04\/2018","end_fr":"15\/04\/2018","start_en":"2018-04-13","end_en":"2018-04-15","lat":"47.6062095","lng":"-122.3320708","type":"tango-week-end"},{"date_id":25897,"image":"uploads\/img\/thumb\/dd01b2714757e7b86e86ec9d4ae1eb34.jpg","month":"04-2018","title":"Grand week-end de milongas 14-15 avril \u00e0 Besan\u00e7on","city":"Besancon","country":"France","start_fr":"14\/04\/2018","end_fr":"15\/04\/2018","start_en":"2018-04-14","end_en":"2018-04-15","lat":"47.237829","lng":"6.024053899999999","type":"tango-week-end"},{"date_id":22202,"image":"uploads\/img\/thumb\/a067919dea569fd9fb19dfd638ec719d.jpg","month":"04-2018","title":"Voyage Tango A Catane - Sicile","city":"Catania","country":"Italy","start_fr":"16\/04\/2018","end_fr":"26\/04\/2018","start_en":"2018-04-16","end_en":"2018-04-26","lat":"37.5078772","lng":"15.0830304","type":"voyage-tango"},{"date_id":31619,"image":"uploads\/img\/thumb\/bbbd7152aeeaac8ebfc00d46c1b80b00.jpg","month":"04-2018","title":"13\u00ba International Tango Festival - Porto 2018","city":"Porto","country":"Portugal","start_fr":"18\/04\/2018","end_fr":"23\/04\/2018","start_en":"2018-04-18","end_en":"2018-04-23","lat":"41.1579438","lng":"-8.629105299999999","type":"tango-festival"},{"date_id":12329,"image":"uploads\/img\/thumb\/41aafe163f63c9c0c82cc99185ad8da8.jpg","month":"04-2018","title":"VI Oxford Tango Festival","city":"Oxford","country":"United Kingdom","start_fr":"19\/04\/2018","end_fr":"22\/04\/2018","start_en":"2018-04-19","end_en":"2018-04-22","lat":"51.7520209","lng":"-1.2577263","type":"tango-festival"},{"date_id":38963,"image":"uploads\/img\/thumb\/7f1ef945bc0e2ef8b6422bc8616321de.jpg","month":"04-2018","title":"Besos de Miel - Spring Edition","city":"Halle","country":"Germany","start_fr":"19\/04\/2018","end_fr":"22\/04\/2018","start_en":"2018-04-19","end_en":"2018-04-22","lat":"51.4969802","lng":"11.9688029","type":"tango-marathon"},{"date_id":19603,"image":"uploads\/img\/thumb\/5c60d1bbd6760c1aaf0d35522f2de613.jpg","month":"04-2018","title":"Aegean Tango Marathon 2018","city":"Cesme","country":"Turkey","start_fr":"19\/04\/2018","end_fr":"23\/04\/2018","start_en":"2018-04-19","end_en":"2018-04-23","lat":"38.324311","lng":"26.303215","type":"tango-marathon"},{"date_id":27047,"image":"uploads\/img\/thumb\/23035e1315bdad7e6c1437ed4bba6e62.jpg","month":"04-2018","title":"TTMTrIoTANGOmArAtHoN Simone Facchini Y Gioia Abballe","city":"Palermo","country":"Italy","start_fr":"20\/04\/2018","end_fr":"22\/04\/2018","start_en":"2018-04-20","end_en":"2018-04-22","lat":"38.1156879","lng":"13.3612671","type":"tango-marathon"},{"date_id":53272,"image":"uploads\/img\/thumb\/be99de547f25a16f1090fb4e34197c19.jpg","month":"04-2018","title":"Tango Wellness Camp VIII - 20-22 aprilie 2018, Arieseni","city":"Arieseni","country":"Romania","start_fr":"20\/04\/2018","end_fr":"22\/04\/2018","start_en":"2018-04-20","end_en":"2018-04-22","lat":"46.471261","lng":"22.741694","type":"voyage-tango"},{"date_id":43183,"image":"uploads\/img\/thumb\/a867bcd44b52d9970ba46b04b65fe171.jpg","month":"04-2018","title":"VI Festival Tangom\u00e1gico en Santander","city":"Santander","country":"Spain","start_fr":"20\/04\/2018","end_fr":"22\/04\/2018","start_en":"2018-04-20","end_en":"2018-04-22","lat":"43.46230569999999","lng":"-3.8099803","type":"tango-festival"},{"date_id":53376,"image":"uploads\/img\/thumb\/6b96b3a4d6c4e861196cf9be85171590.jpg","month":"04-2018","title":"Salonissimo Savona Tango Festival","city":"Savona","country":"Italy","start_fr":"20\/04\/2018","end_fr":"22\/04\/2018","start_en":"2018-04-20","end_en":"2018-04-22","lat":"44.3425496","lng":"8.4293891","type":"tango-festival"},{"date_id":56410,"image":"uploads\/img\/thumb\/35202dc7f6e78ffb1eeb20648aaebfc1.jpg","month":"04-2018","title":"Tango entre Monta\u00f1as 2","city":"Madrid","country":"Spain","start_fr":"20\/04\/2018","end_fr":"22\/04\/2018","start_en":"2018-04-20","end_en":"2018-04-22","lat":"40.4167754","lng":"-3.7037902","type":"tango-week-end"},{"date_id":30023,"image":"uploads\/img\/thumb\/a03789cb125a4744097abbe6183b435e.jpg","month":"04-2018","title":"Maldito Tango Milonguero Weekend","city":"G\u00f6teborg","country":"Sweden","start_fr":"20\/04\/2018","end_fr":"22\/04\/2018","start_en":"2018-04-20","end_en":"2018-04-22","lat":"57.70887","lng":"11.97456","type":"tango-week-end"},{"date_id":30233,"image":"uploads\/img\/thumb\/5827b562ab8adc126b265e2e85f28d69.jpg","month":"04-2018","title":"Ute Lemper \u201eLast Tango in Berlin\u201c","city":"Echternach","country":"Luxembourg","start_fr":"21\/04\/2018","end_fr":"21\/04\/2018","start_en":"2018-04-21","end_en":"2018-04-21","lat":"49.8114133","lng":"6.4175635","type":"voyage-tango"},{"date_id":19403,"image":"uploads\/img\/thumb\/89b957fd89d44eaccf8db538e7403c62.jpg","month":"04-2018","title":"Crociera Tango 2018 - 4 ediz con Alberto Bersini e Paola Pinessi","city":"Viareggio","country":"Italy","start_fr":"22\/04\/2018","end_fr":"29\/04\/2018","start_en":"2018-04-22","end_en":"2018-04-29","lat":"43.8657267","lng":"10.2513103","type":"voyage-tango"},{"date_id":50441,"image":"uploads\/img\/thumb\/e3a8fb17d8d4cf64dacf73418335c3a9.jpg","month":"04-2018","title":"TANGO En FLOR - San Felice Circeo 22-25 aprile 2018","city":"Terracina","country":"Italy","start_fr":"22\/04\/2018","end_fr":"23\/04\/2018","start_en":"2018-04-22","end_en":"2018-04-23","lat":"41.2963728","lng":"13.2332657","type":"tango-week-end"},{"date_id":37033,"image":"uploads\/img\/thumb\/bc67fe2db0d04d2837fd98d565cdfc09.jpg","month":"04-2018","title":"Tango And Constellation Work In France. Deepen Your Passion.","city":"Nevers","country":"France","start_fr":"23\/04\/2018","end_fr":"28\/04\/2018","start_en":"2018-04-23","end_en":"2018-04-28","lat":"46.99089600000001","lng":"3.162845","type":"voyage-tango"},{"date_id":38843,"image":"uploads\/img\/thumb\/914d4ecb3b95bdf4507760b9ebfcfcd8.jpg","month":"04-2018","title":"16\u00b0 Firenze Tango Festival - 25 > 29 April 2018","city":"Firenze","country":"Italy","start_fr":"25\/04\/2018","end_fr":"29\/04\/2018","start_en":"2018-04-25","end_en":"2018-04-29","lat":"43.7695604","lng":"11.2558136","type":"tango-festival"},{"date_id":19658,"image":"uploads\/img\/thumb\/5d96cf360b7eea04bbac78ce90b77541.jpg","month":"04-2018","title":"Naturaltango Festival 2018 - The Last Edition","city":"Denver","country":"United States","start_fr":"26\/04\/2018","end_fr":"29\/04\/2018","start_en":"2018-04-26","end_en":"2018-04-29","lat":"39.7392358","lng":"-104.990251","type":"tango-festival"},{"date_id":35723,"image":"uploads\/img\/thumb\/aa9140d15a743f56d3d001355e3b2673.jpg","month":"04-2018","title":"2018 Seoul Tango Festival, April 26-30","city":"Seoul","country":"Korea South","start_fr":"26\/04\/2018","end_fr":"30\/04\/2018","start_en":"2018-04-26","end_en":"2018-04-30","lat":"37.566535","lng":"126.9779692","type":"tango-festival"},{"date_id":16361,"image":"uploads\/img\/thumb\/5c2fea4824472cfa14b515f21bbb8628.jpg","month":"04-2018","title":"Crociera Tango 2018 (Tango e Mare, grandi passioni)","city":"Savona","country":"Italy","start_fr":"26\/04\/2018","end_fr":"01\/05\/2018","start_en":"2018-04-26","end_en":"2018-05-01","lat":"44.3425496","lng":"8.4293891","type":"voyage-tango"},{"date_id":25063,"image":"uploads\/img\/thumb\/c1dd2736812b2e210c31a0b0e840eb87.jpg","month":"04-2018","title":"Brussels Tango Festival 2018","city":"Bruxelles","country":"Belgium","start_fr":"26\/04\/2018","end_fr":"01\/05\/2018","start_en":"2018-04-26","end_en":"2018-05-01","lat":"50.8503463","lng":"4.3517211","type":"tango-festival"},{"date_id":17001,"image":"uploads\/img\/thumb\/e4b656a07c5fdade6180618c1279043b.jpg","month":"04-2018","title":"2nd Chios Tango Encuentro","city":"Chios","country":"Greece","start_fr":"27\/04\/2018","end_fr":"01\/05\/2018","start_en":"2018-04-27","end_en":"2018-05-01","lat":"38.36818239999999","lng":"26.1310056","type":"tango-festival"},{"date_id":54991,"image":"uploads\/img\/thumb\/8bba09ad257b73e14727950211a80697.jpg","month":"04-2018","title":"Transilvania Tango Experience 27-30 aprilie 2018","city":"Avrig","country":"Romania","start_fr":"27\/04\/2018","end_fr":"30\/04\/2018","start_en":"2018-04-27","end_en":"2018-04-30","lat":"45.7288293","lng":"24.3784376","type":"tango-week-end"},{"date_id":27093,"image":"uploads\/img\/thumb\/1b888f708312b0cb75f2edd29d337c36.jpg","month":"04-2018","title":"Festivalito La Lluvia de Abril","city":"Freiburg","country":"Germany","start_fr":"27\/04\/2018","end_fr":"29\/04\/2018","start_en":"2018-04-27","end_en":"2018-04-29","lat":"47.9990077","lng":"7.842104299999999","type":"tango-festival"},{"date_id":38814,"image":"uploads\/img\/thumb\/c9107ea5ac900d7875565a9e6c32e503.jpg","month":"04-2018","title":"Corazon Berlin Tango Marathon 27th - 29th April 2018","city":"Berlin","country":"Germany","start_fr":"27\/04\/2018","end_fr":"29\/04\/2018","start_en":"2018-04-27","end_en":"2018-04-29","lat":"52.52000659999999","lng":"13.404954","type":"tango-marathon"},{"date_id":46890,"image":"uploads\/img\/thumb\/206c961374b4c720c6a75dc6cc7b7140.jpg","month":"04-2018","title":"XVII Festival Internacional de Tango de Donostia-San Sebasti\u00e1n","city":"Donostia","country":"Spain","start_fr":"27\/04\/2018","end_fr":"01\/05\/2018","start_en":"2018-04-27","end_en":"2018-05-01","lat":"43.318334","lng":"-1.9812313","type":"tango-festival"},{"date_id":25739,"image":"uploads\/img\/thumb\/44b69721f011b4898f8e05f492cf33cd.jpg","month":"04-2018","title":"Munich Werksviertel Tango Marathon 2018","city":"Munich","country":"Germany","start_fr":"27\/04\/2018","end_fr":"29\/04\/2018","start_en":"2018-04-27","end_en":"2018-04-29","lat":"48.1351253","lng":"11.5819805","type":"tango-marathon"},{"date_id":28738,"image":"uploads\/img\/thumb\/990b98ed6207db71d735221a8f55b820.png","month":"04-2018","title":"Tango Viejo Tallinn Marathon 2018 April 27th-29th","city":"Tallinn","country":"Estonia","start_fr":"27\/04\/2018","end_fr":"29\/04\/2018","start_en":"2018-04-27","end_en":"2018-04-29","lat":"59.43696079999999","lng":"24.7535747","type":"tango-marathon"},{"date_id":53307,"image":"uploads\/img\/thumb\/36f4679dac9313e6cd4416aad9a24703.jpg","month":"04-2018","title":"Abacus goes Munich Werksviertel Tango-Marathon","city":"Munich","country":"Germany","start_fr":"27\/04\/2018","end_fr":"29\/04\/2018","start_en":"2018-04-27","end_en":"2018-04-29","lat":"48.1351253","lng":"11.5819805","type":"tango-marathon"},{"date_id":38414,"image":"uploads\/img\/thumb\/0b3c18169ce9e9dcda0b1820bdd73768.jpg","month":"04-2018","title":"Devoradores Tango Marathon Wroc\u0142aw 2018","city":"Wroclaw","country":"Poland","start_fr":"27\/04\/2018","end_fr":"29\/04\/2018","start_en":"2018-04-27","end_en":"2018-04-29","lat":"51.1078852","lng":"17.0385376","type":"tango-marathon"},{"date_id":19869,"image":"uploads\/img\/thumb\/fbe7b94e65afd92c251d549344c862c2.jpg","month":"04-2018","title":"TANGO FUEGO Festival \u00e9dition 2018","city":"Angers","country":"France","start_fr":"27\/04\/2018","end_fr":"01\/05\/2018","start_en":"2018-04-27","end_en":"2018-05-01","lat":"47.478419","lng":"-0.5631659999999999","type":"tango-festival"},{"date_id":34756,"image":"uploads\/img\/thumb\/67aa77e3a516a35213824f638261cc0b.jpg","month":"04-2018","title":"Sevilla es Puro Tango 2018","city":"Sevilla","country":"Spain","start_fr":"27\/04\/2018","end_fr":"01\/05\/2018","start_en":"2018-04-27","end_en":"2018-05-01","lat":"37.3890924","lng":"-5.9844589","type":"tango-festival"},{"date_id":28164,"image":"uploads\/img\/thumb\/3b2ca2ee99328c01d94d0335709534db.jpg","month":"04-2018","title":"Singapore Tango Marathon 2018","city":"Singapore","country":"Singapore","start_fr":"27\/04\/2018","end_fr":"30\/04\/2018","start_en":"2018-04-27","end_en":"2018-04-30","lat":"1.352083","lng":"103.819836","type":"tango-marathon"},{"date_id":42680,"image":"uploads\/img\/thumb\/c791b4a7fd7221e4239e658cebbfd539.png","month":"04-2018","title":"ESO! Buffalo Tango Marathon","city":"Abbeville US","country":"United States","start_fr":"27\/04\/2018","end_fr":"27\/04\/2018","start_en":"2018-04-27","end_en":"2018-04-27","lat":"29.9746502","lng":"-92.13429210000001","type":"tango-marathon"},{"date_id":26386,"image":"uploads\/img\/thumb\/dfaacf14e0b5d68e1fe998492cb8e8dd.jpg","month":"04-2018","title":"CORSE TANGO MEETING","city":"Bastia","country":"France","start_fr":"28\/04\/2018","end_fr":"03\/05\/2018","start_en":"2018-04-28","end_en":"2018-05-03","lat":"42.697283","lng":"9.450880999999999","type":"voyage-tango"},{"date_id":29716,"image":"uploads\/img\/thumb\/02ddab1da92ac05a2858af0bb3b8aba8.jpg","month":"04-2018","title":"Tangowa Maj\u00f3wka \"Wielki B\u0142\u0119kit\" 28 IV- 1 V 2018","city":"Gdansk","country":"Poland","start_fr":"28\/04\/2018","end_fr":"01\/05\/2018","start_en":"2018-04-28","end_en":"2018-05-01","lat":"54.35202520000001","lng":"18.6466384","type":"voyage-tango"},{"date_id":19527,"image":"uploads\/img\/thumb\/c9383027bd4a57a80564762e21f544c3.jpg","month":"04-2018","title":"Menj\u00fcnk egy\u00fctt a Garda-t\u00f3hoz! Tango Emotion 11","city":"Pescantina","country":"Italy","start_fr":"28\/04\/2018","end_fr":"01\/05\/2018","start_en":"2018-04-28","end_en":"2018-05-01","lat":"45.4827606","lng":"10.8674898","type":"tango-festival"},{"date_id":29576,"image":"uploads\/img\/thumb\/6e4bc47404c95bd57c04764f577b559a.jpg","month":"04-2018","title":"TangoEmotion Festival 2018","city":"Verona","country":"Italy","start_fr":"28\/04\/2018","end_fr":"01\/05\/2018","start_en":"2018-04-28","end_en":"2018-05-01","lat":"45.43838419999999","lng":"10.9916215","type":"tango-festival"},{"date_id":44096,"image":"uploads\/img\/thumb\/f0c412eb85797a918e629125a6b94f38.jpg","month":"04-2018","title":"Encuentro Tanguero Jumelage \/Corsica","city":"Nice","country":"France","start_fr":"28\/04\/2018","end_fr":"01\/05\/2018","start_en":"2018-04-28","end_en":"2018-05-01","lat":"43.7101728","lng":"7.261953200000001","type":"tango-week-end"},{"date_id":30197,"image":"uploads\/img\/thumb\/c8ba5cca16d9c5c5a0530b2cd0a38144.jpg","month":"04-2018","title":"The three hundred Neapolis Tango Marathon","city":"Napoli","country":"Italy","start_fr":"28\/04\/2018","end_fr":"30\/04\/2018","start_en":"2018-04-28","end_en":"2018-04-30","lat":"40.8517746","lng":"14.2681244","type":"tango-marathon"},{"date_id":55073,"image":"uploads\/img\/thumb\/b1f2bace924b2981b397507e18595988.jpg","month":"04-2018","title":"Week-End Tango Salle des F\u00eates d'Arles","city":"Arles","country":"France","start_fr":"28\/04\/2018","end_fr":"29\/04\/2018","start_en":"2018-04-28","end_en":"2018-04-29","lat":"43.676647","lng":"4.6277769","type":"tango-week-end"},{"date_id":47367,"image":"uploads\/img\/thumb\/5dfb4589132901eb959ddcd920b80b67.jpg","month":"05-2018","title":"Bratislava tanguer@s joining BTE 2018","city":"Belgrade","country":"Serbia","start_fr":"01\/05\/2018","end_fr":"07\/05\/2018","start_en":"2018-05-01","end_en":"2018-05-07","lat":"44.786568","lng":"20.4489216","type":"tango-festival"},{"date_id":40572,"image":"uploads\/img\/thumb\/852c56ac194dcd61248ca64d448977b7.jpg","month":"05-2018","title":"We're going to Belgrade Tango Encuentro Festival - May 1 - 7","city":"Belgrade","country":"Serbia","start_fr":"01\/05\/2018","end_fr":"07\/05\/2018","start_en":"2018-05-01","end_en":"2018-05-07","lat":"44.786568","lng":"20.4489216","type":"tango-marathon"},{"date_id":28428,"image":"uploads\/img\/thumb\/8dd727d6ac8741f00971d7c88418060e.jpg","month":"05-2018","title":"Festival\/\u041c\u0430rathon Belgrade Tango Encuentro - May 1 - 7 2018","city":"Belgrade","country":"Serbia","start_fr":"01\/05\/2018","end_fr":"07\/05\/2018","start_en":"2018-05-01","end_en":"2018-05-07","lat":"44.786568","lng":"20.4489216","type":"tango-festival"},{"date_id":5482,"image":"uploads\/img\/thumb\/812f91e0bde71be49f8fea75596576f9.jpg","month":"05-2018","title":"Krakus Aires Tango Festival 2018","city":"Krakow","country":"Poland","start_fr":"03\/05\/2018","end_fr":"07\/05\/2018","start_en":"2018-05-03","end_en":"2018-05-07","lat":"50.06465009999999","lng":"19.9449799","type":"tango-festival"},{"date_id":41691,"image":"uploads\/img\/thumb\/0a8aa13c26b7411088702eb5e481335c.jpg","month":"05-2018","title":"Limassol \"Souvlaki\" Tango Marathon - 3rd Edition","city":"Limassol","country":"Cyprus","start_fr":"03\/05\/2018","end_fr":"07\/05\/2018","start_en":"2018-05-03","end_en":"2018-05-07","lat":"34.7071301","lng":"33.0226174","type":"tango-marathon"},{"date_id":52022,"image":"uploads\/img\/thumb\/4520e6620aee08a8ae176a979c39da6f.jpg","month":"05-2018","title":"\u041e\u0434\u0435\u0441\u0441\u043a\u0438\u0439 \u041a\u0438\u043f\u0438\u0448, \u0432\u0438\u043a\u0435\u043d\u0434-\u0442\u0430\u043d\u0433\u043e-\u0438\u043d\u0442\u0435\u043d\u0441\u0438\u0432, \u0441 04 \u043f\u043e 06 \u043c\u0430\u044f 2018","city":"Odessa","country":"Ukraine","start_fr":"04\/05\/2018","end_fr":"07\/05\/2018","start_en":"2018-05-04","end_en":"2018-05-07","lat":"46.482526","lng":"30.7233095","type":"tango-week-end"},{"date_id":48967,"image":"uploads\/img\/thumb\/ebf58f0c6eb3aa9aaaa8c53b7fb2125e.jpg","month":"05-2018","title":"Hudson Valley Tango Festival","city":"New York","country":"United States","start_fr":"04\/05\/2018","end_fr":"06\/05\/2018","start_en":"2018-05-04","end_en":"2018-05-06","lat":"40.7127753","lng":"-74.0059728","type":"tango-festival"},{"date_id":42862,"image":"uploads\/img\/thumb\/1154b13377453776a11802f902cfedd3.jpg","month":"05-2018","title":"One week-end to remember 2'nd edition - \u261b\u261bOfficial Event\u261a\u261a","city":"Craiova","country":"Romania","start_fr":"04\/05\/2018","end_fr":"04\/05\/2018","start_en":"2018-05-04","end_en":"2018-05-04","lat":"44.3301785","lng":"23.7948807","type":"tango-week-end"},{"date_id":54520,"image":"uploads\/img\/thumb\/c6afc9bd9ac8e09d192e599e9697fbf5.jpg","month":"05-2018","title":"Maja and Marko in London - big TangoBETTER event","city":"London","country":"United Kingdom","start_fr":"04\/05\/2018","end_fr":"07\/05\/2018","start_en":"2018-05-04","end_en":"2018-05-07","lat":"51.5073509","lng":"-0.1277583","type":"tango-week-end"},{"date_id":47771,"image":"uploads\/img\/thumb\/3d366446d3cbc53c0d54004debc87083.jpg","month":"05-2018","title":"Mantova International Tango Festival","city":"Mantova","country":"Italy","start_fr":"04\/05\/2018","end_fr":"06\/05\/2018","start_en":"2018-05-04","end_en":"2018-05-06","lat":"45.1564168","lng":"10.7913751","type":"tango-festival"},{"date_id":25730,"image":"uploads\/img\/thumb\/107e7913a585b482a9febd912b3bb215.jpg","month":"05-2018","title":"TangoB\u00e2le Warm Up Weekend with World Champions Juan & Manuela","city":"Basel","country":"Switzerland","start_fr":"04\/05\/2018","end_fr":"06\/05\/2018","start_en":"2018-05-04","end_en":"2018-05-06","lat":"47.5595986","lng":"7.5885761","type":"tango-week-end"},{"date_id":55959,"image":"uploads\/img\/thumb\/e1cd7420b8e465ae9104c415cce1d7bc.jpg","month":"05-2018","title":"Bailarinas TANGO Festival 2018","city":"Paris","country":"France","start_fr":"04\/05\/2018","end_fr":"08\/05\/2018","start_en":"2018-05-04","end_en":"2018-05-08","lat":"48.856614","lng":"2.3522219","type":"tango-festival"},{"date_id":54882,"image":"uploads\/img\/thumb\/34b83be82638285f3b547105b9f9afbf.jpg","month":"05-2018","title":"Bien De Maraton Vol 3 \/ 04-05-06 May 2018.","city":"Ankara","country":"Turkey","start_fr":"04\/05\/2018","end_fr":"07\/05\/2018","start_en":"2018-05-04","end_en":"2018-05-07","lat":"39.9333635","lng":"32.8597419","type":"tango-marathon"},{"date_id":55929,"image":"","month":"05-2018","title":"Encuentro Malevaje Tango Ciudad Real 2018","city":"Ronda","country":"Spain","start_fr":"04\/05\/2018","end_fr":"06\/05\/2018","start_en":"2018-05-04","end_en":"2018-05-06","lat":"36.746209","lng":"-5.161225099999999","type":"tango-encuentro"},{"date_id":20857,"image":"uploads\/img\/thumb\/cf318123dec7d2bb7330a0076c604ab5.jpg","month":"05-2018","title":"Bordeaux Cit\u00e9 Tango Festival 6","city":"Bordeaux","country":"France","start_fr":"08\/05\/2018","end_fr":"13\/05\/2018","start_en":"2018-05-08","end_en":"2018-05-13","lat":"44.837789","lng":"-0.57918","type":"tango-festival"},{"date_id":30724,"image":"uploads\/img\/thumb\/18e5c5bb70befd398677359ffa68d749.jpg","month":"05-2018","title":"Abrazo Tango Metz Festival #3","city":"Metz","country":"France","start_fr":"09\/05\/2018","end_fr":"13\/05\/2018","start_en":"2018-05-09","end_en":"2018-05-13","lat":"49.1193089","lng":"6.175715599999999","type":"tango-festival"},{"date_id":23403,"image":"uploads\/img\/thumb\/a3e84fcbf0b93978e2d973e701e32c79.jpg","month":"05-2018","title":"10th Dubai Tango Festival 2018","city":"Dubai","country":"United Arab Emirates","start_fr":"09\/05\/2018","end_fr":"13\/05\/2018","start_en":"2018-05-09","end_en":"2018-05-13","lat":"25.2048493","lng":"55.2707828","type":"tango-festival"},{"date_id":41907,"image":"uploads\/img\/thumb\/af603115141d289e45f7c4814ceb1cab.jpg","month":"05-2018","title":"TOSSA DE MAR TANGO MEETING","city":"Girona","country":"Spain","start_fr":"10\/05\/2018","end_fr":"13\/05\/2018","start_en":"2018-05-10","end_en":"2018-05-13","lat":"41.9794005","lng":"2.8214264","type":"voyage-tango"},{"date_id":48949,"image":"uploads\/img\/thumb\/6f7d158054a5a97ef1a7864e45fbc35b.jpg","month":"05-2018","title":"DNI Tango Weekend 2018","city":"Stockholm","country":"Sweden","start_fr":"10\/05\/2018","end_fr":"13\/05\/2018","start_en":"2018-05-10","end_en":"2018-05-13","lat":"59.32932349999999","lng":"18.0685808","type":"tango-week-end"},{"date_id":48966,"image":"uploads\/img\/thumb\/2931cc099d7d719ae28cf751e27d27fc.jpg","month":"05-2018","title":"Les Nuits Allum\u00e9es","city":"Orvault","country":"France","start_fr":"10\/05\/2018","end_fr":"13\/05\/2018","start_en":"2018-05-10","end_en":"2018-05-13","lat":"47.274344","lng":"-1.619405","type":"tango-festival"},{"date_id":28560,"image":"uploads\/img\/thumb\/177e28403c892b210915156801b10f0c.jpg","month":"05-2018","title":"Encanto Milonguero 2018","city":"Trente","country":"Italy","start_fr":"10\/05\/2018","end_fr":"13\/05\/2018","start_en":"2018-05-10","end_en":"2018-05-13","lat":"46.0747793","lng":"11.1217486","type":"tango-encuentro"},{"date_id":54430,"image":"uploads\/img\/thumb\/485c34c3f054ea50f23da483f58a9175.jpg","month":"05-2018","title":"Moscow Tango Holidays \/ elcentro edition","city":"Moscow","country":"Russia","start_fr":"10\/05\/2018","end_fr":"13\/05\/2018","start_en":"2018-05-10","end_en":"2018-05-13","lat":"55.755826","lng":"37.6172999","type":"voyage-tango"},{"date_id":31301,"image":"uploads\/img\/thumb\/a2915cc1a194f300ca2c9cdda9fc349a.jpg","month":"05-2018","title":"HelaTango 2018","city":"Tampere","country":"Finland","start_fr":"10\/05\/2018","end_fr":"13\/05\/2018","start_en":"2018-05-10","end_en":"2018-05-13","lat":"61.4977524","lng":"23.7609535","type":"tango-week-end"},{"date_id":52615,"image":"uploads\/img\/thumb\/ec18de2588b62b2c6cac368ac799cdf2.jpg","month":"05-2018","title":"Pittsburgh Tango Week","city":"Pittsburgh","country":"United States","start_fr":"10\/05\/2018","end_fr":"13\/05\/2018","start_en":"2018-05-10","end_en":"2018-05-13","lat":"40.44062479999999","lng":"-79.9958864","type":"tango-week-end"},{"date_id":29857,"image":"uploads\/img\/thumb\/f00e9e65f86715172f2a19a6927ed71e.jpg","month":"05-2018","title":"3\u00e8me Festival Normandie Tango Argentin","city":"Mondeville","country":"France","start_fr":"10\/05\/2018","end_fr":"13\/05\/2018","start_en":"2018-05-10","end_en":"2018-05-13","lat":"49.176963","lng":"-0.319769","type":"tango-festival"},{"date_id":27402,"image":"uploads\/img\/thumb\/7e1630fb15f22fe80696c97aa9f430ea.jpg","month":"05-2018","title":"Primavera en Praga Tango Marathon 4th edition","city":"Prague","country":"Czech Republic","start_fr":"10\/05\/2018","end_fr":"14\/05\/2018","start_en":"2018-05-10","end_en":"2018-05-14","lat":"50.0755381","lng":"14.4378005","type":"tango-marathon"},{"date_id":49459,"image":"uploads\/img\/thumb\/59cf5f8c3691f326c40af63684588e5c.jpg","month":"05-2018","title":"Copenhagen Tango Intermezzo 2018","city":"copenhagen","country":"Denmark","start_fr":"10\/05\/2018","end_fr":"13\/05\/2018","start_en":"2018-05-10","end_en":"2018-05-13","lat":"55.6760968","lng":"12.5683372","type":"tango-festival"},{"date_id":41205,"image":"uploads\/img\/thumb\/56dbaacd3414731371cd951f2993186a.jpg","month":"05-2018","title":"Les Cigales 10\u00e8me anniversaire","city":"Vienne","country":"France","start_fr":"10\/05\/2018","end_fr":"13\/05\/2018","start_en":"2018-05-10","end_en":"2018-05-13","lat":"45.525587","lng":"4.874339","type":"tango-encuentro"},{"date_id":7958,"image":"uploads\/img\/thumb\/90092a947255226e541637f38736b83c.jpg","month":"05-2018","title":"2nd Tango Unchained international festival","city":"Tavros","country":"Greece","start_fr":"10\/05\/2018","end_fr":"13\/05\/2018","start_en":"2018-05-10","end_en":"2018-05-13","lat":"37.9709961","lng":"23.6916685","type":"tango-festival"},{"date_id":41236,"image":"uploads\/img\/thumb\/c7127d88dd45abe65c52a2fdead980e7.jpg","month":"05-2018","title":"Neo Tango Rage 2018","city":"Gold Coast","country":"Australia","start_fr":"11\/05\/2018","end_fr":"13\/05\/2018","start_en":"2018-05-11","end_en":"2018-05-13","lat":"-28.016667","lng":"153.4","type":"tango-festival"},{"date_id":56311,"image":"uploads\/img\/thumb\/6b334094e30de06f2dbccef7976d5953.jpg","month":"05-2018","title":"Neo Tango Rage","city":"Dallas","country":"United States","start_fr":"11\/05\/2018","end_fr":"13\/05\/2018","start_en":"2018-05-11","end_en":"2018-05-13","lat":"32.7766642","lng":"-96.79698789999999","type":"tango-festival"},{"date_id":28156,"image":"uploads\/img\/thumb\/84809fa6a6bb0e9e25b1f5a23fe50913.jpg","month":"05-2018","title":"RioGrande Tango Marathon 2018 - Pskov, Russia","city":"Pskov","country":"Russia","start_fr":"11\/05\/2018","end_fr":"13\/05\/2018","start_en":"2018-05-11","end_en":"2018-05-13","lat":"57.8166994","lng":"28.3344735","type":"tango-marathon"},{"date_id":43613,"image":"uploads\/img\/thumb\/329a5209a3573f16e47dd649d1f2ab3a.jpg","month":"05-2018","title":"Vienna Calling Tango Marathon 2018","city":"Wien","country":"Austria","start_fr":"11\/05\/2018","end_fr":"14\/05\/2018","start_en":"2018-05-11","end_en":"2018-05-14","lat":"48.2081743","lng":"16.3738189","type":"tango-marathon"},{"date_id":32098,"image":"uploads\/img\/thumb\/c34a25353b9e21a6f1fca29edac241e0.png","month":"05-2018","title":"Embrace - Berlin Tango Community Festival","city":"Berlin","country":"Germany","start_fr":"15\/05\/2018","end_fr":"21\/05\/2018","start_en":"2018-05-15","end_en":"2018-05-21","lat":"52.52000659999999","lng":"13.404954","type":"tango-festival"},{"date_id":24739,"image":"uploads\/img\/thumb\/4339e36a75c6dc3865724a256633def0.jpg","month":"05-2018","title":"Tango Vacation in Europe 2018 Berlin","city":"Berlin","country":"Germany","start_fr":"16\/05\/2018","end_fr":"21\/05\/2018","start_en":"2018-05-16","end_en":"2018-05-21","lat":"52.52000659999999","lng":"13.404954","type":"voyage-tango"},{"date_id":40675,"image":"uploads\/img\/thumb\/28700d4bf62d4a9fcef5b3a4ec301c62.jpg","month":"05-2018","title":"Bailongo Montr\u00e9al ! Festival de Tango 2018","city":"Montr\u00e9al","country":"Canada","start_fr":"16\/05\/2018","end_fr":"21\/05\/2018","start_en":"2018-05-16","end_en":"2018-05-21","lat":"45.5016889","lng":"-73.567256","type":"tango-festival"},{"date_id":46313,"image":"uploads\/img\/thumb\/c242d5102499cf4389d8748eebbd95cb.jpg","month":"05-2018","title":"Tango Meeting Caserta 17-20 maggio 2018","city":"Caserta","country":"Italy","start_fr":"17\/05\/2018","end_fr":"21\/05\/2018","start_en":"2018-05-17","end_en":"2018-05-21","lat":"41.0854362","lng":"14.367553","type":"tango-festival"},{"date_id":49607,"image":"uploads\/img\/thumb\/5bf0622796ef3c1e2fdc26b4fea437e3.jpg","month":"05-2018","title":"Tango Meeting Caserta 17-20 maggio 2018 | Festival & marathon","city":"Caserta","country":"Italy","start_fr":"17\/05\/2018","end_fr":"21\/05\/2018","start_en":"2018-05-17","end_en":"2018-05-21","lat":"41.0854362","lng":"14.367553","type":"tango-festival"},{"date_id":42864,"image":"uploads\/img\/thumb\/8c76f345e445bd9a908b470eb7d36bb2.jpg","month":"05-2018","title":"May Tango Festival 2018: 1st Edition","city":"Zabrze","country":"Poland","start_fr":"17\/05\/2018","end_fr":"20\/05\/2018","start_en":"2018-05-17","end_en":"2018-05-20","lat":"50.3249278","lng":"18.7857186","type":"tango-festival"},{"date_id":35093,"image":"uploads\/img\/thumb\/71d72d0299d052b39f33e4868a230f52.jpg","month":"05-2018","title":"Tango Vlaho VI - Marathon Edition - Save the Date!","city":"Iasi","country":"Romania","start_fr":"17\/05\/2018","end_fr":"20\/05\/2018","start_en":"2018-05-17","end_en":"2018-05-20","lat":"47.1584549","lng":"27.6014418","type":"tango-marathon"},{"date_id":43479,"image":"uploads\/img\/thumb\/4465b023ac876f84574bc92313b183a1.jpg","month":"05-2018","title":"Insomnia Tango Festival Piatigorsk","city":"Nalchik","country":"Russia","start_fr":"17\/05\/2018","end_fr":"20\/05\/2018","start_en":"2018-05-17","end_en":"2018-05-20","lat":"43.4949918","lng":"43.6045133","type":"tango-festival"},{"date_id":45034,"image":"uploads\/img\/thumb\/7a2a31998f27ca5545ab780fe1252179.jpg","month":"05-2018","title":"Mattstedt Tango Weekend Pfingsten 2018","city":"Naumburg","country":"Germany","start_fr":"17\/05\/2018","end_fr":"21\/05\/2018","start_en":"2018-05-17","end_en":"2018-05-21","lat":"51.1520283","lng":"11.8142454","type":"tango-week-end"},{"date_id":42460,"image":"uploads\/img\/thumb\/d45959d13925c8776469dc9e5de59f71.jpg","month":"05-2018","title":"Karlsruhe International Tango Festival","city":"Karlsruhe","country":"Germany","start_fr":"17\/05\/2018","end_fr":"21\/05\/2018","start_en":"2018-05-17","end_en":"2018-05-21","lat":"49.0068901","lng":"8.4036527","type":"tango-festival"},{"date_id":25409,"image":"uploads\/img\/thumb\/eb3ec1691354bac9fa7e7d3d70924c8c.jpg","month":"05-2018","title":"A'mareTango encuentro milonguero May 2018","city":"Pisa","country":"Italy","start_fr":"18\/05\/2018","end_fr":"20\/05\/2018","start_en":"2018-05-18","end_en":"2018-05-20","lat":"43.7228386","lng":"10.4016888","type":"tango-encuentro"},{"date_id":18822,"image":"uploads\/img\/thumb\/90962f4af74b9e61ebf39e6a79158ebf.jpg","month":"05-2018","title":"Para dos - piccolo Encuentro Milonguero - Verona 18\/20 maggio 2018","city":"Verona","country":"Italy","start_fr":"18\/05\/2018","end_fr":"20\/05\/2018","start_en":"2018-05-18","end_en":"2018-05-20","lat":"45.43838419999999","lng":"10.9916215","type":"tango-encuentro"},{"date_id":29946,"image":"uploads\/img\/thumb\/7eeab6065d7d29df29eb93d564b780cc.jpg","month":"05-2018","title":"Encuentro de tango El Hurac\u00e1n","city":"Vinaros","country":"Spain","start_fr":"18\/05\/2018","end_fr":"20\/05\/2018","start_en":"2018-05-18","end_en":"2018-05-20","lat":"40.4679855","lng":"0.4747301","type":"tango-encuentro"},{"date_id":52736,"image":"uploads\/img\/thumb\/1c5972fda95f04076d0835e2e4c9808f.jpg","month":"05-2018","title":"VII Encuentro El Huracan Tango","city":"Luna","country":"Romania","start_fr":"18\/05\/2018","end_fr":"20\/05\/2018","start_en":"2018-05-18","end_en":"2018-05-20","lat":"46.4899019","lng":"23.9280247","type":"tango-encuentro"},{"date_id":53333,"image":"uploads\/img\/thumb\/e0c875b3472411442db877dd56dfe045.jpg","month":"05-2018","title":"Las chicas - tango festival","city":"Fortaleza","country":"Brazil","start_fr":"18\/05\/2018","end_fr":"20\/05\/2018","start_en":"2018-05-18","end_en":"2018-05-20","lat":"-3.7319029","lng":"-38.5267393","type":"tango-festival"},{"date_id":45884,"image":"uploads\/img\/thumb\/9cf9272bf8927acbf609f9853a6bb9f4.jpg","month":"05-2018","title":"Sardegna Tango Marathon 3\u00b0 edizione","city":"Oristano","country":"Italy","start_fr":"18\/05\/2018","end_fr":"20\/05\/2018","start_en":"2018-05-18","end_en":"2018-05-20","lat":"39.906182","lng":"8.5883863","type":"tango-marathon"},{"date_id":32213,"image":"uploads\/img\/thumb\/2edfecc38d2ee8df84eb897b446c60b3.jpg","month":"05-2018","title":"Braise Tango en Balade 2018","city":"Rennes","country":"France","start_fr":"19\/05\/2018","end_fr":"21\/05\/2018","start_en":"2018-05-19","end_en":"2018-05-21","lat":"48.117266","lng":"-1.6777926","type":"tango-week-end"},{"date_id":54273,"image":"uploads\/img\/thumb\/92004b29118701d4999015a26a5fbfa8.jpg","month":"05-2018","title":"We are going to Havana - with tango tango.","city":"Havana CU","country":"Cuba","start_fr":"23\/05\/2018","end_fr":"30\/05\/2018","start_en":"2018-05-23","end_en":"2018-05-30","lat":"23.1135925","lng":"-82.3665956","type":"voyage-tango"},{"date_id":22624,"image":"uploads\/img\/thumb\/5099ffdfc349823abb3cc62cb3480bfd.jpg","month":"05-2018","title":"2nd International Caliente Tango Marathon Antalya","city":"Antalya","country":"Turkey","start_fr":"24\/05\/2018","end_fr":"28\/05\/2018","start_en":"2018-05-24","end_en":"2018-05-28","lat":"36.8968908","lng":"30.7133233","type":"tango-marathon"},{"date_id":54040,"image":"uploads\/img\/thumb\/5d83001f5830c01996f72d758b95589d.jpg","month":"05-2018","title":"Maspalomas Tango Festival","city":"Las Palmas de Gran Canaria","country":"Spain","start_fr":"24\/05\/2018","end_fr":"28\/05\/2018","start_en":"2018-05-24","end_en":"2018-05-28","lat":"28.1235459","lng":"-15.4362574","type":"tango-festival"},{"date_id":19202,"image":"uploads\/img\/thumb\/b97fbaf4d8e90b04836ef063eefe9de0.jpg","month":"05-2018","title":"LOCA, TangOh Festival with Flavor","city":"Auburndale","country":"United States","start_fr":"24\/05\/2018","end_fr":"28\/05\/2018","start_en":"2018-05-24","end_en":"2018-05-28","lat":"28.0652975","lng":"-81.7886906","type":"tango-festival"},{"date_id":17700,"image":"uploads\/img\/thumb\/dd4be6906cd5fb0cca70777053a81438.png","month":"05-2018","title":"TANGO Zaragoza Festival 3\u00aa edici\u00f3n","city":"Zaragoza","country":"Spain","start_fr":"24\/05\/2018","end_fr":"27\/05\/2018","start_en":"2018-05-24","end_en":"2018-05-27","lat":"41.6488226","lng":"-0.8890853","type":"tango-festival"},{"date_id":19148,"image":"uploads\/img\/thumb\/4d8ad8ac8f1706e5db98f055ce69e087.jpg","month":"05-2018","title":"SPQR Tango Marathon Roma 24-28 May 2018","city":"Roma","country":"Italy","start_fr":"24\/05\/2018","end_fr":"27\/05\/2018","start_en":"2018-05-24","end_en":"2018-05-27","lat":"41.9027835","lng":"12.4963655","type":"tango-marathon"},{"date_id":46180,"image":"uploads\/img\/thumb\/409114f84f34f6901239f099a7e7f5a1.jpg","month":"05-2018","title":"Tango Festival Saint Geniez 2018","city":"Rodez","country":"France","start_fr":"25\/05\/2018","end_fr":"28\/05\/2018","start_en":"2018-05-25","end_en":"2018-05-28","lat":"44.349389","lng":"2.575986","type":"tango-festival"},{"date_id":29938,"image":"uploads\/img\/thumb\/79d21edb200e021cb3d5bf2328b6186f.jpg","month":"05-2018","title":"Tango Vacanza Ischia","city":"Napoli","country":"Italy","start_fr":"25\/05\/2018","end_fr":"27\/05\/2018","start_en":"2018-05-25","end_en":"2018-05-27","lat":"40.8517746","lng":"14.2681244","type":"voyage-tango"},{"date_id":16543,"image":"uploads\/img\/thumb\/d87f81e4d98ea3cc62bce1da4e943adc.jpg","month":"05-2018","title":"Havana Tango Marathon, May 2018","city":"Havana CU","country":"Cuba","start_fr":"25\/05\/2018","end_fr":"28\/05\/2018","start_en":"2018-05-25","end_en":"2018-05-28","lat":"23.1135925","lng":"-82.3665956","type":"tango-marathon"},{"date_id":51419,"image":"uploads\/img\/thumb\/a1c5f6f4a3f5956a8e04a5040b81dd99.jpg","month":"05-2018","title":"Alegria Mini Tango Festival May 25,26 & 27","city":"New Britain","country":"United States","start_fr":"25\/05\/2018","end_fr":"27\/05\/2018","start_en":"2018-05-25","end_en":"2018-05-27","lat":"41.6612104","lng":"-72.7795419","type":"tango-festival"},{"date_id":53216,"image":"","month":"05-2018","title":"Mysterious Castle Marathon","city":"Berlin","country":"Germany","start_fr":"25\/05\/2018","end_fr":"27\/05\/2018","start_en":"2018-05-25","end_en":"2018-05-27","lat":"52.52000659999999","lng":"13.404954","type":"tango-marathon"},{"date_id":28153,"image":"uploads\/img\/thumb\/60416cfb074eb1cb0474e11991d2eb11.jpg","month":"05-2018","title":"Mysterious Castle Tango Weekend 2018","city":"Neustrelitz","country":"Germany","start_fr":"25\/05\/2018","end_fr":"27\/05\/2018","start_en":"2018-05-25","end_en":"2018-05-27","lat":"53.3601147","lng":"13.0730197","type":"tango-week-end"},{"date_id":51638,"image":"uploads\/img\/thumb\/2f51364c624e6be0e57038c2fe34d04d.jpg","month":"05-2018","title":"SolYMar Tunisia Tango Marathon","city":"Hammamet","country":"Tunisia","start_fr":"25\/05\/2018","end_fr":"27\/05\/2018","start_en":"2018-05-25","end_en":"2018-05-27","lat":"36.4072574","lng":"10.6224706","type":"tango-marathon"},{"date_id":12178,"image":"uploads\/img\/thumb\/a7330f82f0bb4dc98d1481c1b0012ae4.jpg","month":"05-2018","title":"Lake Tahoe Tango Retreat","city":"Reno","country":"United States","start_fr":"25\/05\/2018","end_fr":"28\/05\/2018","start_en":"2018-05-25","end_en":"2018-05-28","lat":"39.5296329","lng":"-119.8138027","type":"tango-festival"},{"date_id":32128,"image":"uploads\/img\/thumb\/df26df2f7973db472ca4081759bbc945.jpg","month":"05-2018","title":"Vacanza Mare-Tango all'Isola d'Elba (7mo incontro)","city":"Pila","country":"Poland","start_fr":"25\/05\/2018","end_fr":"28\/05\/2018","start_en":"2018-05-25","end_en":"2018-05-28","lat":"53.1509671","lng":"16.7382266","type":"voyage-tango"},{"date_id":48064,"image":"uploads\/img\/thumb\/8762cb99d3796ae607f194f7b644aeef.jpg","month":"05-2018","title":"8th Philly Tango Fest | May 25-28, 2018","city":"Philadelphia","country":"United States","start_fr":"25\/05\/2018","end_fr":"28\/05\/2018","start_en":"2018-05-25","end_en":"2018-05-28","lat":"39.9525839","lng":"-75.1652215","type":"tango-festival"},{"date_id":44761,"image":"uploads\/img\/thumb\/954dc7372a7cc137546808b822f34976.jpg","month":"05-2018","title":"11th Edinburgh International Tango Festival","city":"Edinburgh","country":"United Kingdom","start_fr":"25\/05\/2018","end_fr":"28\/05\/2018","start_en":"2018-05-25","end_en":"2018-05-28","lat":"55.953252","lng":"-3.188267","type":"tango-festival"},{"date_id":49947,"image":"uploads\/img\/thumb\/aa3da1bf4331258bf6431329fd88d1b5.jpg","month":"05-2018","title":"Green Tango T\u00e4llberg 2018","city":"Green","country":"United States","start_fr":"25\/05\/2018","end_fr":"27\/05\/2018","start_en":"2018-05-25","end_en":"2018-05-27","lat":"42.6287336","lng":"-89.62516459999999","type":"tango-week-end"},{"date_id":17978,"image":"uploads\/img\/thumb\/ec75007177d65be428cab8f4e0b45389.jpg","month":"05-2018","title":"TIC-TAC-TANGO-TIME-MARATHON","city":"Geneve","country":"Switzerland","start_fr":"25\/05\/2018","end_fr":"25\/05\/2018","start_en":"2018-05-25","end_en":"2018-05-25","lat":"46.2043907","lng":"6.1431577","type":"tango-marathon"},{"date_id":54324,"image":"uploads\/img\/thumb\/8cab57c92c3ca87eab9a21996fde797f.jpg","month":"05-2018","title":"TM Festival 25-27 May 2018","city":"Timisoara","country":"Romania","start_fr":"25\/05\/2018","end_fr":"28\/05\/2018","start_en":"2018-05-25","end_en":"2018-05-28","lat":"45.7488716","lng":"21.2086793","type":"tango-festival"},{"date_id":55063,"image":"uploads\/img\/thumb\/e5541d5c9166cba9431e461ca541f130.jpg","month":"05-2018","title":"Salt Lake Tango Fest 2018","city":"Salt Lake City","country":"United States","start_fr":"25\/05\/2018","end_fr":"28\/05\/2018","start_en":"2018-05-25","end_en":"2018-05-28","lat":"40.7607793","lng":"-111.8910474","type":"tango-week-end"},{"date_id":28555,"image":"uploads\/img\/thumb\/820cd7614ca0c20e987c07c49a5f3308.jpg","month":"05-2018","title":"Rock it! Tango Weekend","city":"Chisinau","country":"Moldova","start_fr":"25\/05\/2018","end_fr":"27\/05\/2018","start_en":"2018-05-25","end_en":"2018-05-27","lat":"47.0104529","lng":"28.8638102","type":"tango-week-end"},